,Name,Longitude,Latitude,Elevation
0,Absdorf,15.9766666666667,48.4016666666667,182.0
660,Ach_Burghausen,12.8463888888889,48.1488888888889,473.0
1080,Admont,14.4572222222222,47.5677777777778,700.0
1740,Afritz,13.7955555555556,46.7275,715.0
2412,Alberschwende,9.84916666666667,47.4583333333333,717.0
2928,Alland_Groisbach,16.0552777777778,48.0447222222222,387.0
3168,Almsee_Fischerau,13.9508333333333,47.8238888888889,574.0
3828,Alpl,15.6661111111111,47.4947222222222,1020.0
4260,Altach,9.65472222222222,47.3591666666667,412.0
4692,Altenburg,15.5963888888889,48.6491666666667,393.0
5220,Altheim,13.2266666666667,48.25,358.0
5868,Altmanns,15.1066666666667,48.8713888888889,590.0
6504,Altmunster,13.76,47.8744444444445,517.0
6828,Am_Nachtsollberg,12.2261111111111,47.4280555555556,995.0
7284,Amerlugen_Saminaweg_,9.61222222222222,47.2083333333333,760.0
7692,Andau,17.0252777777778,47.7755555555556,119.0
8112,Andelsbuch,9.8775,47.4038888888889,600.0
8772,Annaberg_115568,15.3680555555556,47.8758333333333,924.0
9120,Annaberg_126029,13.4230555555556,47.5375,700.0
9396,Anras,12.5711111111111,46.7769444444445,1300.0
10008,Apetlon,16.8422222222222,47.7425,118.0
10668,Arnoldstein,13.7116666666667,46.55,580.0
11340,Aschach_an_der_Donau,14.0030555555556,48.3761111111111,292.0
11988,Aschau,12.3080555555556,47.3833333333333,1005.0
12540,Attersee,13.5363888888889,47.9183333333333,495.0
13200,Au_Argenau,9.97722222222222,47.3230555555556,800.0
13860,Axams,11.2755555555556,47.2305555555556,890.0
14352,Baad,10.1330555555556,47.3155555555556,1305.0
14736,Babniak,14.2713888888889,46.535,440.0
15408,Bad_Deutsch_Altenburg,16.9011111111111,48.1288888888889,173.0
16068,Bad_Goisern,13.6130555555556,47.6516666666667,505.0
16728,Bad_Leonfelden,14.3,48.5177777777778,725.0
17256,Bad_Schonau,16.2305555555556,47.4952777777778,474.0
17616,Bad_Waltersdorf,16.0125,47.1669444444444,285.0
18276,Barental,14.1558333333333,46.4688888888889,1000.0
18948,Barnbach,15.1341666666667,47.0705555555556,420.0
19584,Barnkopf,15.005,48.3897222222222,962.0
20244,Behamberg,14.4958333333333,48.0355555555556,495.0
20904,Berwang,10.7511111111111,47.4077777777778,1295.0
21564,Bildstein,9.77416666666667,47.4663888888889,720.0
22224,Birkfeld_Schule_,15.6916666666667,47.3519444444445,680.0
22572,Birnberg,13.7297222222222,47.4125,820.0
22956,Bizau,9.93944444444444,47.3672222222222,705.0
23616,Bleistatter_Moor,14.0463888888889,46.6983333333333,510.0
24288,Blons,9.85638888888889,47.2236111111111,772.0
24948,Bockstein,13.1158333333333,47.0872222222222,1140.0
25608,Bodele,9.80861111111111,47.4211111111111,1150.0
26268,Boden,10.6055555555556,47.2847222222222,1355.0
26928,Bodental,14.2152777777778,46.4688888888889,1058.0
27600,Bodinggraben,14.3927777777778,47.7908333333333,640.0
28008,Bonisdorf,16.0636111111111,46.8497222222222,376.0
28668,Bosruckhutte,14.3672222222222,47.6397222222222,1036.0
29076,Bramberg,12.3211111111111,47.2630555555556,844.0
29208,Brand,9.74555555555555,47.1077777777778,1005.0
29868,Brand_Laaben,15.8819444444444,48.1038888888889,317.0
30528,Brandenberg,11.8955555555556,47.4902777777778,920.0
31188,Braunau_am_Inn,13.0766666666667,48.2538888888889,360.0
31836,Bregenz_Altreuteweg_,9.75666666666667,47.5072222222222,447.0
32496,Breitenau,14.3569444444444,47.8463888888889,514.0
33024,Breitenau_bei_Mixnitz,15.44,47.3911111111111,560.0
33684,Breitenbach,15.0644444444444,47.1394444444444,880.0
34068,Breitenfeld,15.3863888888889,48.7483333333333,568.0
34716,Breitenstein,15.8177777777778,47.6577777777778,722.0
35124,Bromberg_103341,12.2261111111111,47.4866666666667,1180.0
35592,Bromberg_109983,16.205,47.6633333333333,419.0
36252,Brunnbach,14.5141666666667,47.8158333333333,595.0
36384,Brunngraben,15.2883333333333,47.7263888888889,710.0
37044,Dalaas,10.0288888888889,47.1288888888889,951.0
37704,Deutsch_Jahrndorf,17.1011111111111,48.0036111111111,131.0
38136,Deutsch_Kaltenbrunn,16.1241666666667,47.0894444444445,358.0
38544,Deutschkreutz,16.6394444444444,47.5941666666667,175.0
39204,Diex,14.6172222222222,46.7441666666667,1150.0
39864,Dobersberg,15.3169444444444,48.9183333333333,488.0
40116,Donnersbachwald,14.1222222222222,47.3766666666667,980.0
40716,Donnerskirchen,16.6602777777778,47.8891666666667,126.0
41376,Donnerskirchen_Waldgasse_,16.6352777777778,47.9063888888889,206.0
41832,Doren,9.86138888888889,47.49,710.0
42492,Dornbirn,9.73861111111111,47.4047222222222,441.0
43152,Drassburg,16.4916666666667,47.7469444444445,229.0
43812,Dreifaltigkeit,14.2866666666667,46.8066666666667,1180.0
44484,Dresdner_Hutte,11.14,46.9975,2290.0
45048,Durnbach_im_Burgenland,16.3886111111111,47.2630555555556,292.0
45444,Durnkrut,16.8455555555556,48.4730555555556,163.0
46008,Durrnberg,13.0919444444444,47.6680555555556,726.0
46140,Ebelsberg_Gottschallingerstr_,14.3186111111111,48.2372222222222,261.0
46800,Ebensee_Wasserwerk_,13.7838888888889,47.8005555555556,422.0
47244,Eberau,16.4586111111111,47.1094444444445,215.0
47904,Eberschwang,13.5608333333333,48.1583333333333,535.0
48036,Ebnit,9.74944444444444,47.3511111111111,1051.0
48696,Eckartsau,16.7975,48.1477777777778,146.0
49356,Edmundshof,16.9958333333333,47.9055555555556,148.0
50016,Eferding,14.0169444444444,48.3227777777778,274.0
50352,Egg,9.91194444444444,47.4363888888889,660.0
51012,Eggenburg,15.8172222222222,48.6361111111111,362.0
51084,Eibiswald,15.2586111111111,46.6916666666667,360.0
51744,Eisenberg_an_der_Pinka,16.4247222222222,47.1797222222222,247.0
52404,Eisenkappel,14.5927777777778,46.4733333333333,623.0
53064,Eisenstadt,16.5430555555556,47.8566666666667,195.0
53508,Ellmau,12.2786111111111,47.525,750.0
54168,Elmen_Martinau,10.5436111111111,47.3583333333333,954.0
54828,Eltendorf,16.1961111111111,47.0097222222222,244.0
55200,Enns,14.4802777777778,48.2038888888889,259.0
55860,Ennsbach,15.0280555555556,48.1480555555556,244.0
56520,Eugendorf,13.1219444444444,47.8852777777778,520.0
57180,Faak_am_See,13.9147222222222,46.5627777777778,585.0
57456,Fehring,16.0177777777778,46.9333333333333,260.0
58068,Feistritz_an_der_Gail,13.6105555555556,46.5766666666667,561.0
58740,Felbertauerntunnel_Sud,12.5055555555556,47.1183333333333,1637.0
59304,Festenburg_Hinterberg,15.9233333333333,47.4875,920.0
59616,Fieberbrunn,12.5502777777778,47.4683333333333,850.0
60180,Filzmoos,13.5230555555556,47.4355555555556,1050.0
60840,Flachau,13.3958333333333,47.3472222222222,910.0
61500,Fladnitzberg,15.4827777777778,47.3075,1070.0
61956,Flattnitz,14.0369444444444,46.9413888888889,1430.0
62628,Flirsch,10.4108333333333,47.1522222222222,1204.0
63060,Forchach,10.5858333333333,47.4197222222222,910.0
63720,Forchtenstein,16.335,47.7088888888889,397.0
64380,Frankenau,16.6025,47.4519444444445,208.0
64764,Frankenburg,13.4933333333333,48.0677777777778,515.0
65424,Frankenfels,15.3277777777778,47.9825,468.0
66084,Franzensdorf,16.6433333333333,48.19,152.0
66744,Frastanz,9.63583333333333,47.2166666666667,487.0
67164,Frauenkirchen,16.9247222222222,47.8272222222222,122.0
67404,Frauental,15.2186111111111,46.8394444444445,350.0
67788,Frein_an_der_Murz,15.4883333333333,47.7427777777778,867.0
68352,Friedberg_Ortgraben,16.0491666666667,47.4369444444444,550.0
69012,Friedburg,13.2475,48.0172222222222,512.0
69396,Frohnleiten,15.3230555555556,47.2691666666667,420.0
70056,Furth_Harras,15.915,47.9813888888889,488.0
70656,Fuschl,13.3047222222222,47.7933333333333,670.0
71316,Fussach,9.665,47.4816666666667,400.0
71976,Gaberl,14.9513888888889,47.1108333333333,1160.0
72396,Gaisberg,14.4172222222222,46.9730555555556,930.0
72804,Gaissau,9.59861111111111,47.4677777777778,400.0
73464,Gallneukirchen,14.4091666666667,48.3552777777778,330.0
74112,Gars_am_Kamp,15.6675,48.5986111111111,270.0
74508,Gasen,15.5852777777778,47.3894444444445,950.0
74736,Gasselsdorf,14.6225,47.2047222222222,780.0
75048,Gattendorf,16.9819444444444,48.0158333333333,150.0
75588,Geboltskirchen,13.6327777777778,48.1572222222222,540.0
76116,Gedersberg,15.3891666666667,47.0105555555556,390.0
76548,Gedersdorf,15.6911111111111,48.4341666666667,196.0
76800,Geretsberg,12.9511111111111,48.0952777777778,505.0
77460,Gerlos,12.03,47.2244444444444,1263.0
78120,Gfohl,15.4922222222222,48.5177777777778,582.0
78528,Ginzling,11.7925,47.0913888888889,1060.0
79188,Glanegg,13.0175,47.7494444444444,450.0
79848,Glanz,15.5013888888889,46.6516666666667,476.0
80232,Glashutten_bei_Langeck,16.3844444444444,47.3755555555556,431.0
80712,Glasing,16.3652777777778,47.0477777777778,209.0
81108,Gloggnitz,15.9394444444444,47.6641666666667,509.0
81768,Gmund,14.9797222222222,48.7641666666667,498.0
82416,Gmunden_Traundorf,13.8069444444444,47.9366666666667,456.0
82944,Goldworth,14.0855555555556,48.3297222222222,260.0
83592,Golling_Torren,13.1575,47.5916666666667,473.0
84252,Gosau,13.5419444444444,47.5897222222222,765.0
84912,Gossl,13.8927777777778,47.6413888888889,710.0
85572,Gostling_an_der_Ybbs,14.9313888888889,47.8105555555556,530.0
86232,Grades_Klachl,14.2808333333333,46.975,725.0
86748,Grafenschlag,15.1397222222222,48.4869444444445,787.0
87396,Grafenworth,15.7552777777778,48.4075,190.0
88056,Gramais,10.5355555555556,47.2688888888889,1320.0
88716,Gratkorn,15.3238888888889,47.1466666666667,392.0
89376,Graz_Andritz,15.4158333333333,47.1097222222222,361.0
90036,Graz_Gries,15.4233333333333,47.0561111111111,350.0
90336,Greifenburg,13.1794444444444,46.7466666666667,610.0
91008,Grein,14.8644444444444,48.2313888888889,270.0
91668,Greith,14.0219444444444,47.5691666666667,945.0
92052,Gresten,15.0225,47.9922222222222,398.0
92592,Gries,11.0266666666667,47.07,1590.0
92916,Gries_im_Sellrain,11.1525,47.1886111111111,1227.0
93576,Grieskirchen_Moosham,13.8091666666667,48.2327777777778,352.0
94236,Gross_Gerungs,14.9608333333333,48.575,680.0
94872,Gross_St_Florian,15.3138888888889,46.8280555555556,320.0
95172,Grossarl,13.2,47.2383333333333,890.0
95832,Grossgmain,12.9191666666667,47.7280555555556,560.0
95892,Grossheinrichschlag,15.3844444444444,48.4197222222222,704.0
96552,Grosslobming,14.8052777777778,47.1811111111111,650.0
97008,Grosswilfersdorf,16.0033333333333,47.0747222222222,275.0
97596,Grubegg,13.9261111111111,47.5475,790.0
98256,Grubhof_St_Martin,12.6997222222222,47.5775,630.0
98916,Grunau_Almegg,13.9394444444444,47.8602777777778,540.0
99576,Gschnaidt,15.1655555555556,47.2022222222222,1128.0
100056,Gschnitz_Obertal,11.3325,47.0283333333333,1280.0
100452,Gschosswand,11.83,47.1758333333333,1790.0
101004,Guglwald,14.1705555555556,48.5883333333333,727.0
101652,Gutau,14.6091666666667,48.4244444444444,630.0
102300,Gutenstein,15.8944444444444,47.8775,478.0
102960,Gutle,9.77611111111111,47.3930555555556,530.0
103620,Guttaring,14.5302777777778,46.8955555555556,710.0
103956,Hagensdorf_Luising,16.4780555555556,47.0111111111111,199.0
104616,Haidbach,12.4858333333333,47.2541666666667,900.0
105264,Hainfeld,15.7841666666667,48.0330555555556,429.0
105396,Halbturn,16.9863888888889,47.8730555555556,130.0
106056,Hall_in_Tirol,11.4936111111111,47.2877777777778,585.0
106332,Hallein,13.0886111111111,47.6880555555556,443.0
106404,Hard_Rotachstrasse_,9.69944444444445,47.4822222222222,401.0
106668,Haringgraben,15.1108333333333,47.5491666666667,1020.0
107088,Hartberg,15.9733333333333,47.2838888888889,350.0
107748,Haslach,14.0402777777778,48.5863888888889,542.0
108396,Hebalpe,15.0108333333333,46.9288888888889,1310.0
109056,Heiligenblut,12.8519444444444,47.0366666666667,1380.0
109728,Heiligenkreuz,16.2533333333333,46.9888888888889,228.0
109968,Helfenberg,14.1477777777778,48.545,598.0
110604,Hellmonsodt,14.3041666666667,48.4330555555556,840.0
111252,Hinterhornbach,10.4547222222222,47.3591666666667,1100.0
111912,Hinterlug,14.7644444444444,47.9341666666667,416.0
112152,Hinterriss,11.4638888888889,47.4802777777778,920.0
112812,Hintersee_AT_HZB,13.2225,47.7611111111111,727.0
113472,Hinterstoder,14.1575,47.7005555555556,590.0
114132,Hirschegg,14.9244444444444,47.0169444444445,1158.0
114684,Hittisau,9.93944444444444,47.4683333333333,800.0
115344,Hochberg,12.3633333333333,46.8152777777778,1672.0
116016,Hocheck,13.3505555555556,48.0472222222222,595.0
116424,Hochegg,13.5663888888889,46.7333333333333,1030.0
117096,Hochfilzen,12.6216666666667,47.4702777777778,960.0
117756,Hochgleinz,15.3322222222222,46.8058333333333,340.0
118032,Hochstrass,16.3997222222222,47.4283333333333,424.0
118692,Hochwolkersdorf,16.2777777777778,47.6655555555556,614.0
119292,Hofen,10.6811111111111,47.4716666666667,874.0
119952,Hofkirchen_an_der_Trattnach,13.7394444444444,48.2172222222222,385.0
120492,Hofstetten,15.5138888888889,48.0958333333333,318.0
121152,Hohenau_am_Wechsel,15.9852777777778,47.4608333333333,1080.0
121680,Hohenau_an_der_Raab,15.5130555555556,47.3008333333333,702.0
122220,Hohenems,9.68,47.3566666666667,422.0
122880,Hohenlehen,14.7775,47.8566666666667,424.0
123540,Hohentauern,14.4875,47.4338888888889,1265.0
124200,Hollenthon,16.2633333333333,47.5908333333333,685.0
124440,Hopfgarten_i_Brt_,12.1527777777778,47.4541666666667,591.0
125100,Hopfgarten_i_Def_,12.5127777777778,46.9197222222222,1096.0
125676,Horbranz,9.75277777777778,47.5502777777778,425.0
126336,Horzendorf,14.3311111111111,46.7344444444445,475.0
126672,Huttau,13.3155555555556,47.4130555555556,720.0
127332,Hutten,12.7330555555556,47.4472222222222,900.0
127992,Huttererboden,14.1805555555556,47.6797222222222,1370.0
128652,Huttschlag,13.2313888888889,47.1772222222222,1030.0
129312,Ibm,12.9594444444444,48.0669444444445,427.0
129972,Illmitz_Biologische_Station_,16.7536111111111,47.7705555555556,115.0
130284,Imst_Oberstadt,10.7411111111111,47.2488888888889,860.0
130944,Ingering_II,14.705,47.2711111111111,850.0
131604,Inneralpbach,11.9655555555556,47.3736111111111,1040.0
132264,Innerlaterns,9.74305555555556,47.2569444444445,1025.0
132924,Innerschmirn_Obern,11.6044444444444,47.1097222222222,1632.0
133488,Innervillgraten,12.3597222222222,46.81,1400.0
134160,Inzing,11.2072222222222,47.2705555555556,610.0
134724,Irschen_Leppen,13.0269444444444,46.7630555555556,1150.0
135312,Iselsberg_Penzelberg,12.8586111111111,46.8566666666667,1210.0
135984,Jagerwirt,15.0919444444444,46.7405555555556,1300.0
136440,Jauken,13.0355555555556,46.6744444444445,925.0
136680,Jerzens_Ritzenried,10.7819444444444,47.1225,1120.0
137340,Jochberg,12.4269444444444,47.3827777777778,950.0
138000,Judenburg,14.6622222222222,47.1727777777778,730.0
138660,Julbach,13.8561111111111,48.6652777777778,565.0
139188,Jungholz,10.4561111111111,47.5730555555556,1118.0
139740,Kaiserbrunn,15.7925,47.7358333333333,523.0
140400,Kaisers,10.2975,47.2133333333333,1380.0
140964,Kappl_Oberbichl,10.3961111111111,47.0744444444445,1490.0
141276,Karbachalm_Talstation_,13.1097222222222,47.38,925.0
141672,Karl,16.3466666666667,47.5080555555556,373.0
142332,Karlstetten,15.5766666666667,48.255,340.0
142872,Karlstift,14.7294444444444,48.5958333333333,919.0
143520,Kartitsch,12.5022222222222,46.725,1374.0
143976,Kaunertal_Vergotschen,10.7530555555556,47.0430555555556,1269.0
144576,Kelchsau,12.1388888888889,47.3863888888889,801.0
145236,Kematen_am_Innbach,13.8675,48.1763888888889,355.0
145896,Kendlbruck,13.8813888888889,47.0702777777778,940.0
146124,Kernhof,15.5169444444444,47.8230555555556,751.0
146532,Keutschach,14.1655555555556,46.5927777777778,530.0
147204,Kilb,15.4144444444444,48.1105555555556,295.0
147864,Kindtal,15.4666666666667,47.5241666666667,573.0
147936,Kirchberg_am_Wechsel,16.0063888888889,47.6055555555556,563.0
148596,Kirchberg_in_Tirol,12.3166666666667,47.4463888888889,830.0
149256,Kirchberg_ob_der_Donau,13.9380555555556,48.4447222222222,588.0
149904,Kirchdorf_an_der_Krems,14.1211111111111,47.9113888888889,456.0
150564,Kirchfidisch,16.3502777777778,47.1613888888889,266.0
150912,Kirchschlag_bei_Linz,14.2719444444444,48.4122222222222,885.0
151320,Kittsee,17.0666666666667,48.0813888888889,136.0
151980,Kitzeck_im_Sausal,15.4491666666667,46.7930555555556,485.0
152640,Klagenfurt,14.3186111111111,46.6127777777778,458.0
153180,Klammstein,13.0816666666667,47.2647222222222,795.0
153828,Klaus_an_der_Pyhrnbahn,14.1588888888889,47.8316666666667,461.0
154488,Klaushof,11.9430555555556,47.1577777777778,1022.0
155112,Klein_Pyhrgas,14.3808333333333,47.7088888888889,727.0
155772,Kleinarl,13.3163888888889,47.2825,990.0
156432,Kleinreifling,14.6422222222222,47.8230555555556,414.0
157092,Kleinvolderberg,11.5413888888889,47.2736111111111,660.0
157752,Kleylehof,17.0680555555556,47.8936111111111,135.0
158412,Klopein_am_Klopeiner_See,14.6016666666667,46.6055555555556,470.0
159072,Klosterle,10.0866666666667,47.1322222222222,1057.0
159612,Klosterwinkel,15.0969444444444,46.9158333333333,1162.0
160080,Knappenberg,14.5588888888889,46.9219444444445,1050.0
160548,Kobersdorf,16.3961111111111,47.5980555555556,333.0
161208,Kopfing,13.6602777777778,48.4413888888889,569.0
161820,Kossen,12.4027777777778,47.6716666666667,590.0
162480,Kreuzberg,15.4591666666667,46.7069444444445,590.0
162948,Kreuzwirt,15.7933333333333,47.38,1038.0
163560,Krippenstein,13.6941666666667,47.5238888888889,2050.0
164184,Kukmirn,16.205,47.0761111111111,252.0
164844,Laab,14.6452777777778,48.22,240.0
165504,Laab_im_Walde,16.1752777777778,48.155,318.0
166044,Laakirchen,13.8144444444444,47.9836111111111,440.0
166704,Lackenhof,15.1538888888889,47.87,807.0
167364,Ladis_Neuegg,10.6488888888889,47.0972222222222,1426.0
168024,Lahn_Hallstatt,13.6463888888889,47.5569444444444,510.0
168684,Lambrechten,13.5233333333333,48.3133333333333,396.0
169332,Lanersbach,11.7438888888889,47.1622222222222,1250.0
169992,Langenfeld,10.97,47.0763888888889,1180.0
170652,Langhalsen,14.0022222222222,48.4794444444445,449.0
171300,Lasberg,14.5152777777778,48.4883333333333,575.0
171816,Laussa,14.4533333333333,47.9527777777778,440.0
172476,Lavamund,14.9408333333333,46.6408333333333,348.0
172596,Lech,10.1361111111111,47.2047222222222,1480.0
173256,Leonding,14.2605555555556,48.2761111111111,273.0
173916,Lessach,13.8088888888889,47.1897222222222,1190.0
174048,Leutasch_Kirchplatzl,11.1425,47.3711111111111,1135.0
174708,Leutschach,15.4644444444444,46.6530555555556,370.0
175368,Liebenau,14.8091666666667,48.5344444444444,953.0
176016,Lienz_Tristach,12.7902777777778,46.8202777777778,666.0
176628,Liezen,14.2366666666667,47.5708333333333,670.0
177288,Ligist,15.2086111111111,46.9883333333333,370.0
177948,Limberg,15.2091666666667,46.7458333333333,450.0
178464,Linz_Urfahr,14.2752777777778,48.32,305.0
179124,Linz_Wasserwerk_Scharlinz_,14.3116666666667,48.2666666666667,260.0
179580,Linzer_Haus,14.2883333333333,47.6469444444444,1435.0
180240,Loretto,16.5211111111111,47.9133333333333,231.0
180660,Ludesch,9.78472222222222,47.1927777777778,550.0
181080,Lunz_am_See,15.0686111111111,47.855,611.0
181740,Lustenau,9.66888888888889,47.4336111111111,404.0
182400,Lutzmannsburg,16.6405555555556,47.4638888888889,206.0
183060,Magdalensberg,14.4305555555556,46.725,920.0
183732,Mailberg,16.1833333333333,48.6725,208.0
184380,Maissau,15.8236111111111,48.5669444444445,333.0
185028,Maitratten_Sonnleiten,13.9325,46.7866666666667,1000.0
185484,Malta,13.5069444444444,46.9547222222222,830.0
186144,Mannersdorf_an_der_Rabnitz,16.5188888888889,47.4233333333333,252.0
186804,Maria_Laach_am_Jauerling,15.3458333333333,48.3055555555556,594.0
187260,Maria_Langegg,15.4541666666667,48.3252777777778,495.0
187920,Maria_Lankowitz,15.0658333333333,47.0661111111111,530.0
188592,Maria_Luggau,12.7455555555556,46.7033333333333,1140.0
189264,Maria_Neustift,14.6102777777778,47.9388888888889,609.0
189924,Mariensee,15.9713888888889,47.5408333333333,869.0
190584,Markt_Allhau,16.0913888888889,47.2533333333333,327.0
190932,Matrei_am_Brenner,11.4552777777778,47.1311111111111,970.0
191592,Matrei_in_Osttirol,12.5433333333333,47.0033333333333,1001.0
192252,Mattighofen,13.1411111111111,48.0794444444445,457.0
192912,Matzen,16.7,48.3972222222222,170.0
193572,Mautern,14.7811111111111,47.4130555555556,753.0
194232,Mauthausen,14.5036111111111,48.2469444444445,247.0
194892,Meiningen,9.58027777777778,47.3025,423.0
195552,Meschach,9.685,47.3358333333333,850.0
196212,Michaelerberg,13.8897222222222,47.4102777777778,1280.0
196872,Miesenbach,15.9819444444444,47.8377777777778,480.0
196944,Millstatt,13.5713888888889,46.8025,591.0
197616,Mitterbach,15.3094444444444,47.8255555555556,865.0
198072,Moggers,9.81472222222222,47.5616666666667,1010.0
198732,Molln,14.2347222222222,47.8777777777778,423.0
199392,Monichkirchner_Schwaig,16.0083333333333,47.5188888888889,1188.0
200052,Moosbrunn,16.4488888888889,48.0219444444445,198.0
200292,Morbisch_am_See,16.6669444444444,47.7566666666667,130.0
200952,Muhldorf_bei_Spitz,15.3483333333333,48.375,375.0
201492,Muhr,13.4736111111111,47.1083333333333,1110.0
202152,Munzkirchen,13.5711111111111,48.4797222222222,498.0
202800,Murzsteg,15.4725,47.6736111111111,810.0
203460,Namlos,10.6583333333333,47.355,1260.0
204120,Nassereith,10.8497222222222,47.3105555555556,854.0
204744,Nasswald,15.6966666666667,47.7644444444444,619.0
205404,Navis,11.5455555555556,47.1344444444444,1385.0
205800,Nebersdorf,16.5733333333333,47.505,225.0
206244,Neuhaus_am_Zellerain,15.2086111111111,47.7955555555556,1076.0
206904,Neuhaus_an_der_Donau,13.9997222222222,48.4241666666667,450.0
207552,Neuhof,15.1536111111111,47.2325,770.0
208116,Neuhofen_an_der_Krems,14.2225,48.1336111111111,326.0
208776,Neukirchen,12.2983333333333,47.2525,830.0
209412,Neukirchen_am_Walde,13.7758333333333,48.4083333333333,555.0
210060,Neukirchen_an_der_Enknach,13.0375,48.1813888888889,404.0
210720,Neumarkt_an_der_Raab,16.1613888888889,46.9275,243.0
211380,Neumarkt_im_Hausruck,13.7247222222222,48.2780555555556,398.0
212040,Neumarkt_im_Muhlkreis,14.4458333333333,48.4327777777778,611.0
212688,Neusserling,14.1719444444444,48.4313888888889,615.0
213132,Neustift_an_der_Rosalia,16.3186111111111,47.7072222222222,597.0
213792,Neustift_i_St_Volderau,11.255,47.0691666666667,1130.0
214356,Neustift_im_Muhlkreis,13.7658333333333,48.5266666666667,597.0
214788,Nexing,16.66,48.4913888888889,201.0
215136,Nickelsdorf,17.0894444444444,47.9447222222222,130.0
215796,Niederndorferberg,12.2380555555556,47.6725,980.0
216348,Nikitsch,16.6683333333333,47.5311111111111,222.0
216804,Nikolsdorf,12.9047222222222,46.7869444444445,650.0
217260,Noreia,14.5288888888889,47.0144444444444,1060.0
217920,Nussdorf,13.0116666666667,47.9747222222222,460.0
218580,Obdach,14.6941666666667,47.0688888888889,875.0
219240,Oberdorf_im_Burgenland,16.21,47.2252777777778,361.0
219900,Oberdrauburg,12.9805555555556,46.7458333333333,620.0
220572,Oberglan,14.11,46.6872222222222,581.0
221244,Oberkappel,13.7675,48.5533333333333,522.0
221892,Obernberg_am_Brenner,11.4263888888889,47.0183333333333,1360.0
222552,Oberndorf,12.9480555555556,47.9613888888889,430.0
223212,Oberpullendorf,16.5280555555556,47.4891666666667,233.0
223872,Obertilliach,12.6191666666667,46.7086111111111,1400.0
224544,Obertraun,13.6791666666667,47.5602777777778,513.0
225204,Oberwang,13.4252777777778,47.87,595.0
225744,Oberwart,16.2211111111111,47.2816666666667,314.0
226344,Obsteig,10.9236111111111,47.3008333333333,950.0
227004,Ochsengarten_Obergut,10.9186111111111,47.23,1695.0
227604,Oed,14.7458333333333,48.1263888888889,401.0
228264,Oetz,10.8861111111111,47.2058333333333,760.0
228924,Oggau,16.6675,47.8344444444444,120.0
229584,Ollersbach,15.86,48.2008333333333,244.0
229992,Oppenberg,14.27,47.4894444444445,1060.0
230580,Opponitz,14.8319444444444,47.8916666666667,402.0
231240,Ossiach,13.9702777777778,46.66,525.0
231912,Ostermiething,12.8338888888889,48.0513888888889,410.0
232572,Osterwitz,15.0825,46.8625,1220.0
233064,Osterwitz_Winkel,15.0713888888889,46.88,1000.0
233460,Ottenschlag,15.2241666666667,48.4255555555556,863.0
234120,Ottensheim,14.1711111111111,48.33,264.0
234768,Ottenstein,15.3408333333333,48.5836111111111,554.0
234900,Paal_Stadl,13.9930555555556,47.0894444444445,870.0
235560,Pack,14.9861111111111,46.9791666666667,1115.0
236220,Pama,17.035,48.0483333333333,134.0
236880,Parndorf,16.8625,47.9969444444444,181.0
237312,Pechgraben,14.5330555555556,47.9102777777778,430.0
237744,Pernegg,15.3352777777778,47.3652777777778,460.0
238164,Peuerbach,13.7897222222222,48.3066666666667,372.0
238812,Pfander,9.78055555555556,47.5086111111111,1055.0
239172,Pfarrkirchen_AT_HZB,13.8241666666667,48.5052777777778,815.0
239460,Piberstein,14.2016666666667,48.5227777777778,871.0
240108,Pilgersdorf,16.3630555555556,47.41,360.0
240768,Pillichsdorf,16.5297222222222,48.3686111111111,169.0
241428,Pinkafeld,16.1138888888889,47.3755555555556,397.0
242088,Plangeross,10.8675,46.9875,1605.0
242748,Planneralm,14.2030555555556,47.405,1605.0
243192,Pleschkogel,15.2388888888889,47.1491666666667,910.0
243864,Podersdorf_am_See,16.8377777777778,47.8552777777778,121.0
244524,Pollau,15.8358333333333,47.3072222222222,420.0
245136,Pollau_Zentralstation_,15.8086111111111,47.3266666666667,525.0
245640,Pommersdorf,15.4302777777778,48.8430555555556,483.0
245892,Postalm,13.4316666666667,47.6536111111111,1170.0
246024,Postlingberg,14.2586111111111,48.3297222222222,490.0
246684,Potschen,13.6955555555556,47.6236111111111,1000.0
247344,Pottenstein,16.095,47.9641666666667,327.0
247572,Pottschach,15.9938888888889,47.6880555555556,411.0
248232,Pottsching,16.3758333333333,47.8044444444444,215.0
248892,Pragraten,12.3755555555556,47.0180555555556,1340.0
249564,Preblau,14.8038888888889,46.9280555555556,790.0
250236,Preiner_Gscheid,15.7008333333333,47.6613888888889,890.0
250896,Pyhra,15.6966666666667,48.1486111111111,298.0
251556,Radfeld,11.9005555555556,47.4447222222222,514.0
252120,Radstadt,13.4541666666667,47.3891666666667,890.0
252780,Rainbach_im_Muhlkreis,14.4836111111111,48.5513888888889,690.0
253428,Rappottenstein,15.0961111111111,48.5244444444444,586.0
254076,Redlschlag,16.2894444444444,47.4383333333333,704.0
254712,Reichenfels,14.7477777777778,47.0072222222222,800.0
255372,Reichraming,14.4655555555556,47.8930555555556,360.0
256032,Rettenegg,15.7811111111111,47.5255555555556,860.0
256692,Ried_im_Innkreis,13.4897222222222,48.2180555555556,427.0
256752,Ried_im_Oberinntal,10.6605555555556,47.0575,895.0
257412,Ried_im_Zillertal,11.8630555555556,47.3077777777778,554.0
258072,Riefensberg,9.96138888888889,47.5036111111111,770.0
258732,Riegersburg_111302,15.9380555555556,47.0033333333333,350.0
259344,Ritzing,16.4952777777778,47.6122222222222,308.0
260004,Rohr_im_Gebirge,15.7333333333333,47.8966666666667,684.0
260664,Rotholz,11.8,47.3888888888889,563.0
261324,Rust_AT_HZB,16.6741666666667,47.8019444444445,122.0
261984,Saalfelden,12.8516666666667,47.4355555555556,765.0
262644,Sajach,15.3280555555556,46.9538888888889,340.0
263304,Sandl,14.6394444444444,48.5508333333333,935.0
263712,Saxen_Au,14.7911111111111,48.2147222222222,244.0
264372,Schanz,15.5880555555556,47.4688888888889,1230.0
264672,Schardenberg,13.4975,48.5227777777778,529.0
265320,Scharding_Rossbach,13.4527777777778,48.4188888888889,330.0
265968,Scharfling,13.3927777777778,47.8008333333333,480.0
266628,Scharnitz,11.2638888888889,47.3894444444445,959.0
267288,Scharnstein,13.9722222222222,47.91,485.0
267948,Scharten,14.0183333333333,48.2447222222222,395.0
268608,Schattendorf,16.5011111111111,47.7077777777778,268.0
269268,Scheibbs,15.1641666666667,48.03,440.0
269928,Schenkenfelden,14.3588888888889,48.505,745.0
270576,Schlagl,13.9611111111111,48.6380555555556,555.0
271224,Schlitterberg,11.8277777777778,47.3763888888889,960.0
271884,Schonberg,15.6966666666667,48.5175,217.0
272448,Schonberg_im_Stubaital,11.4008333333333,47.1838888888889,1009.0
273108,Schonbergalpe,13.7163888888889,47.5361111111111,1350.0
273768,Schoneben_Gugu,14.7411111111111,48.5347222222222,908.0
274416,Schonenbach,10.0283333333333,47.3733333333333,1040.0
275076,Schwarz_Radsberg,14.3886111111111,46.5730555555556,780.0
275748,Schwarzau_im_Gebirge,15.7094444444444,47.8041666666667,601.0
276348,Schwarzenberg,13.8361111111111,48.7305555555556,729.0
276996,Schwaz,11.7113888888889,47.3438888888889,548.0
277656,Schwendt,12.4052777777778,47.645,660.0
277968,See_im_Paznaun,10.4705555555556,47.0847222222222,1063.0
278628,Seeberg,14.5380555555556,46.4219444444445,1040.0
279288,Seetal,13.9544444444444,47.1561111111111,1210.0
279948,Seewiesen,15.2727777777778,47.6216666666667,980.0
280260,Seitenstetten,14.6530555555556,48.035,351.0
280920,Semriach,15.3919444444444,47.2230555555556,700.0
281580,Sibratsgfall,10.0366666666667,47.4247222222222,902.0
282240,Sieggraben,16.3847222222222,47.6408333333333,438.0
282840,Sieghartskirchen,16.0152777777778,48.2522222222222,199.0
282912,Sigharting,13.5969444444444,48.3977777777778,344.0
283560,Silberegg,14.4925,46.8502777777778,598.0
284220,Silbertal,9.98027777777778,47.0955555555556,886.0
284880,Sillehof,14.4386111111111,46.6658333333333,450.0
285480,Sillian,12.415,46.7469444444444,1079.0
286152,Sinabelkirchen,15.8319444444444,47.1072222222222,350.0
286812,Sirnitz,14.0588888888889,46.8236111111111,850.0
287484,Soboth,15.09,46.6908333333333,1145.0
287988,Sodingberg,15.2066666666667,47.0797222222222,480.0
288552,Solden_Kaisers,11.0147222222222,46.985,1332.0
289212,Soll_Stockach,12.2133333333333,47.5144444444444,660.0
289752,Spiss,10.4363888888889,46.9588888888889,1643.0
290412,Spital_am_Pyhrn,14.3347222222222,47.6688888888889,630.0
291072,St_Aegyd_am_Neuwalde,15.5677777777778,47.8572222222222,607.0
291732,St_Agatha,13.8858333333333,48.3722222222222,499.0
292068,St_Anton_an_der_Jessnitz,15.2077777777778,47.9619444444445,400.0
292608,St_Corona_am_Wechsel,16.0166666666667,47.5808333333333,870.0
292968,St_Georgen_am_Reith,14.8816666666667,47.8416666666667,494.0
293628,St_Jakob_im_Walde,15.7861111111111,47.4686111111111,922.0
294288,St_Johann_am_Tauern,14.4716666666667,47.3563888888889,1050.0
294948,St_Johann_am_Walde,13.28,48.1225,629.0
295608,St_Johann_bei_Herberstein,15.8194444444444,47.2130555555556,410.0
296268,St_Johann_im_Walde,12.6258333333333,46.905,750.0
296928,St_Johann_in_Tirol_Almdorf,12.4422222222222,47.5202777777778,667.0
297492,St_Koloman,13.2327777777778,47.6505555555556,1000.0
297888,St_Lambrecht,14.2958333333333,47.0630555555556,1070.0
298548,St_Leonhard_am_Forst,15.3011111111111,48.1330555555556,256.0
299208,St_Leonhard_i_P_,10.8388888888889,47.0761111111111,1329.0
299868,St_Lorenzen,15.1666666666667,46.6763888888889,752.0
300384,St_Margarethen_Berg,16.6425,47.7952777777778,196.0
300792,St_Margarethen_im_Burgenland,16.6172222222222,47.8022222222222,147.0
301452,St_Margarethen_ob_Tollerberg,14.5733333333333,46.6730555555556,460.0
302112,St_Marienkirchen,13.4530555555556,48.3883333333333,340.0
302760,St_Martin_i_G_,11.5616666666667,47.3216666666667,875.0
303420,St_Michael_im_Burgenland,16.2766666666667,47.1288888888889,243.0
304080,St_Michael_ob_Bleiburg,14.7491666666667,46.5783333333333,527.0
304740,St_Nikolai_im_Sausal,15.4480555555556,46.8208333333333,340.0
305400,St_Nikolai_im_Solktal,14.0466666666667,47.3202777777778,1120.0
306060,St_Oswald_114447,13.7655555555556,46.8477777777778,1373.0
306684,St_Pankraz,14.1802777777778,47.7688888888889,598.0
307344,St_Peter_am_Ottersbach,15.7594444444444,46.8008333333333,270.0
308004,St_Peter_am_Wimberg,14.0969444444444,48.5030555555556,687.0
308652,St_Peter_im_Katschtal,13.5980555555556,47.0283333333333,1220.0
309312,St_Ruprecht_an_der_Raab,15.6583333333333,47.1488888888889,400.0
309672,St_Thomas_am_Blasenstein,14.7733333333333,48.3188888888889,665.0
310332,St_Ulrich_Pillersee,12.5938888888889,47.5111111111111,870.0
310800,St_Wolfgang,14.6366666666667,47.0972222222222,1275.0
311184,Stadt_Haag,14.5686111111111,48.1091666666667,349.0
311844,Stadtschlaining,16.2738888888889,47.3261111111111,424.0
312504,Stainz,15.2588888888889,46.8961111111111,340.0
313164,Stall,13.0344444444444,46.8891666666667,820.0
313824,Stams,10.9852777777778,47.2744444444444,711.0
314484,Stanz,15.4983333333333,47.4688888888889,648.0
315060,Stein_Enns_,13.9416666666667,47.4402777777778,680.0
315324,Steinabrunn,16.21,48.5133333333333,247.0
315984,Steinberg_am_Rofan,11.7994444444444,47.5094444444445,1020.0
316644,Steinbrunn,16.42,47.8294444444445,210.0
317256,Steyr,14.4252777777778,48.0505555555556,336.0
317736,Strass,15.6244444444444,46.7355555555556,256.0
318348,Strasswalchen,13.2508333333333,47.9772222222222,550.0
319008,Strobl,13.4875,47.7225,540.0
319668,Stuhlfelden,12.5288888888889,47.2913888888889,816.0
320328,Sulzberg,9.90944444444444,47.5197222222222,1000.0
320988,Tannheim_Kienzen,10.5038888888889,47.5013888888889,1110.0
321648,Telfes_im_Stubai,11.3616666666667,47.1716666666667,1070.0
322308,Telfs,11.0877777777778,47.3088888888889,618.0
322908,Telfs_Zimmerbergklamm,11.0480555555556,47.3316666666667,967.0
323184,Texing,15.3322222222222,48.0338888888889,469.0
323724,Thalgau,13.2105555555556,47.8691666666667,730.0
323820,Thiersee_Landl,12.0416666666667,47.5888888888889,700.0
324384,Thomatal,13.7344444444444,47.0775,1090.0
324984,Thuringen,9.76277777777778,47.1952777777778,547.0
325644,Thuringerberg,9.78527777777778,47.2177777777778,967.0
326100,Tragoss,15.0788888888889,47.53,770.0
326760,Tragwein,14.6266666666667,48.3275,455.0
327420,Trahutten,15.1366666666667,46.8244444444445,970.0
327804,Trattenbach_Schlaggraben_,15.8819444444444,47.615,1100.0
328212,Trins,11.4183333333333,47.0844444444445,1235.0
328872,Trofaiach,15.0080555555556,47.4288888888889,660.0
329532,Tropolach,13.2844444444444,46.6111111111111,655.0
329856,Tschagguns,9.91583333333333,47.0675,681.0
330516,Tullnerbach,16.1266666666667,48.1844444444444,281.0
331176,Turnitz,15.475,47.9302777777778,480.0
331596,Turracher_Hohe,13.88,46.9188888888889,1767.0
331932,Tweng,13.6291666666667,47.1780555555556,1200.0
332592,Ulrichskirchen,16.4947222222222,48.3988888888889,183.0
333012,Unken,12.7208333333333,47.6452777777778,587.0
333144,Unterhoflein,16.0322222222222,47.7952777777778,441.0
333552,Unterlaussa,14.5580555555556,47.72,540.0
334212,Unterpurkla,15.9144444444444,46.7197222222222,220.0
334860,Unterretzbach,16.0,48.7694444444445,240.0
335256,Untertal_Tetter,13.7125,47.3561111111111,1040.0
335916,Unzmarkt,14.4422222222222,47.1958333333333,745.0
336576,Veitsch,15.4975,47.5766666666667,665.0
337152,Velden_Weinzierl,14.0030555555556,46.6169444444445,535.0
337668,Vichtenstein,13.6327777777778,48.5327777777778,592.0
338316,Vigaun,13.1397222222222,47.6688888888889,495.0
338448,Vils,10.6383333333333,47.5516666666667,810.0
339108,Vocklabruck,13.6655555555556,48.0077777777778,423.0
339768,Vorau,15.8880555555556,47.4016666666667,690.0
340428,Vorchdorf,13.8825,48.0108333333333,455.0
341088,Vosendorf,16.3458333333333,48.1194444444445,190.0
341328,Waidegg,13.2291666666667,46.6375,635.0
342000,Waidhofen_an_der_Thaya,15.2741666666667,48.805,498.0
342648,Waidring,12.5516666666667,47.59,775.0
343308,Walchsee_Kaiserwinkl,12.3122222222222,47.6491666666667,656.0
343968,Wald,12.2333333333333,47.2438888888889,860.0
344040,Wald_am_Schoberpass,14.6788888888889,47.4552777777778,890.0
344700,Waldneukirchen,14.2572222222222,47.9936111111111,440.0
345360,Waldzell,13.4258333333333,48.1425,500.0
346020,Waxenberg,14.1916666666667,48.4744444444445,700.0
346668,Weerberg,11.7055555555556,47.3063888888889,928.0
347328,Weichselboden,15.1791666666667,47.6727777777778,680.0
347988,Weiler,9.65611111111111,47.3063888888889,500.0
348396,Weissbriach,13.2655555555556,46.6783333333333,800.0
349068,Weissenbach_am_Attersee,13.5391666666667,47.7947222222222,476.0
349728,Weissenbach_bei_Modling,16.2077777777778,48.0938888888889,388.0
349968,Weissenstein_AT_HZB,13.7225,46.6827777777778,510.0
350628,Weisspriach,13.7083333333333,47.1761111111111,1100.0
351288,Weitersfelden_Ritzenedt,14.7227777777778,48.4841666666667,764.0
351936,Wels,14.0627777777778,48.1622222222222,305.0
352596,Wenigzell,15.7986111111111,47.4319444444444,785.0
352872,Wernstein,13.4591666666667,48.5194444444445,355.0
353520,Wetzelsdorf,15.8736111111111,46.9944444444445,303.0
353952,Weyregg,13.5722222222222,47.9044444444445,469.0
354564,Wien_Botanischer_Garten_,16.3852777777778,48.1944444444445,180.0
355164,Wien_Kagran,16.4319444444444,48.2438888888889,158.0
355776,Wien_Mauerbach,16.2163888888889,48.2191666666667,215.0
356220,Wien_Neuessling,16.5472222222222,48.2322222222222,155.0
356640,Wien_Rathausplatz_,16.3597222222222,48.21,185.0
357240,Wien_Rosenhugel_,16.2913888888889,48.1622222222222,244.0
357900,Wien_Spargelfeld_,16.4725,48.2377777777778,159.0
358320,Wies,15.2619444444444,46.7225,390.0
358896,Wieselburg,15.1269444444444,48.1277777777778,263.0
359556,Wietersdorf,14.5338888888889,46.8505555555556,630.0
360216,Wildalpen,14.9819444444444,47.655,610.0
360876,Wildschonau_Muhltal,12.0266666666667,47.4302777777778,790.0
361536,Winden_am_See,16.7577777777778,47.9480555555556,125.0
362136,Windhaag_bei_Freistadt,14.565,48.5869444444445,420.0
362760,Windhaag_bei_Perg,14.6816666666667,48.2852777777778,513.0
363156,Windischgarsten_Schule_,14.3269444444444,47.7208333333333,604.0
363816,Wolfsberg,14.8263888888889,46.8277777777778,440.0
364236,Wolfsegg_am_Hausruck,13.6813888888889,48.1127777777778,585.0
364896,Wulkaprodersdorf,16.5180555555556,47.8005555555556,164.0
365460,Wultendorf,16.4658333333333,48.6616666666667,232.0
365604,Wurmlach,13.0155555555556,46.6633333333333,705.0
366168,Zederhaus,13.5144444444444,47.1494444444444,1200.0
366828,Zehensdorf,15.7186111111111,46.8244444444445,288.0
367368,Zelting,16.0216666666667,46.7061111111111,200.0
368028,Zettersfeld,12.7941666666667,46.8675,1903.0
368460,Zobern,16.1302777777778,47.5144444444444,590.0
369120,Zug,10.1094444444444,47.2005555555556,1500.0
369516,Zurndorf,17.0011111111111,47.9825,144.0
370176,Zurs,10.1633333333333,47.1727777777778,1707.0
370836,Zwettl_Edelhof,15.2244444444444,48.6066666666667,595.0
371400,Aadorf_Tanikon,8.90491514616528,47.4798937945144,539.0
371952,Aarberg,7.28141690436924,47.0365890724695,493.0
372108,Acquarossa_Comprovasco,8.9354725666924,46.4595239128783,575.0
372696,Adelboden_CH_METEOSWISS,7.56042247473181,46.4922601543078,1322.0
373404,Affeltrangen,9.01571354544153,47.5371604542352,541.0
373500,Affoltern_i_E_,7.74060398624651,47.0631263746281,755.0
374220,Aigle,6.9244818478763,46.3266403174161,381.0
374868,Airolo,8.5974401620611,46.5259949578697,1139.0
375948,Allenwinden_TG,8.94584356998055,47.3869456490303,865.0
376044,Alpthal,8.71364523636808,47.0603153383556,1015.0
376524,Altdorf,8.62188326940885,46.8870781335011,438.0
377268,Altmatt,8.69634716844368,47.1310353155239,920.0
377844,Altstatten_SG,9.55652375189605,47.3832269350994,430.0
378564,Alvaneu_Dorf,9.64986728376445,46.6772770640508,1170.0
379200,Andeer,9.43196488894614,46.6101464771194,987.0
379344,Andelfingen,8.68608842233675,47.6016058770205,382.0
379956,Andermatt_CH_METEOSWISS,8.58054423383763,46.6309215046146,1438.0
380664,Appenzell,9.39730457191301,47.3395944025279,750.0
381252,Arbon,9.43638426178906,47.5015456380025,401.0
382188,Arisdorf,7.77457763871061,47.5070033618923,480.0
382296,Arni_Islisberg,8.42068955834348,47.3163254830573,567.0
382356,Arosa_CH_METEOSWISS,9.67899971694287,46.7926167927544,1878.0
383916,Auen_Linthal,8.98803718682625,46.902013610961,815.0
383988,Avers_Am_Bach,9.5468533243097,46.4529806984791,1993.0
384432,Bad_Ragaz,9.50257742310034,47.0166263515506,496.0
385152,Bad_Schwendi,7.88765475171179,47.0173106982877,1084.0
385236,Baden,8.30748156088301,47.4797682565312,385.0
385380,Bale_Mulhouse_ehemalige_Station_,7.52226454815301,47.6042312191678,266.0
385716,Balmberg,7.54063527689115,47.26558936566,1075.0
386100,Balsthal,7.71662041573782,47.32035603814,523.0
386664,Barmelweid,7.96948569010461,47.4214235301006,777.0
387276,Basel_Binningen,7.58350313368039,47.5411346624351,316.0
388884,Baulmes,6.52257902926633,46.7894693309352,642.0
389448,Bauma,8.9055556658498,47.3645699565726,667.0
390072,Beatenberg,7.80003213250943,46.7002623548898,1170.0
390360,Bellelay,7.16911540638228,47.2645065973959,923.0
390504,Bellinzona_CH_METEOSWISS,9.0048744276158,46.1898972915872,224.0
391224,Belp,7.50533509779229,46.9060968446451,510.0
391836,Bergun_Latsch,9.75369506366927,46.6272745880837,1407.0
392376,Bern_Zollikofen,7.4640426089328,46.9907397359376,552.0
393852,Bernina_Curtinatsch,9.98687900113323,46.4410974084748,2090.0
393888,Beromunster,8.19362883159751,47.2073062081368,642.0
394212,Bex,6.99530333338512,46.2441615255785,402.0
394752,Beznau,8.23547865355199,47.5577271097408,327.0
395460,Biasca,8.97839475043251,46.3361266289865,278.0
395568,Biel_Bienne,7.25756790537412,47.1204048286578,433.0
396276,Biere,6.34238747101246,46.5248879250992,683.0
396744,Binn,8.19230710322221,46.3676714909287,1479.0
396816,Bischofszell,9.23469967924201,47.4973841855798,470.0
396852,Bisisthal,8.83072300608763,46.943827133333,856.0
397560,Bivio_CH_METEOSWISS,9.66862089382951,46.4624959177239,1856.0
398268,Blatten_Lotschental,7.82319878606842,46.4204571007837,1538.0
398868,Blumenstein,7.52055261402546,46.744251741211,655.0
399456,Bosco_Gurin_CH_METEOSWISS,8.48870580543385,46.3167777325593,1486.0
400176,Boudevilliers,6.88742030750968,47.0228834152844,750.0
400716,Bourg_St_Pierre_CH_METEOSWISS,7.20854415848433,45.9457776802081,1664.0
400860,Bozberg,8.1318326881241,47.4816996010531,536.0
401328,Braggio,9.12546813663244,46.2963488780605,1312.0
402000,Braunau,9.07338590219928,47.5222825283808,592.0
402504,Braunwald_CH_METEOSWISS,8.9876411834552,46.937476052981,1299.0
402636,Breitmoos,9.07738515944477,47.2278073557177,975.0
402684,Brienz,8.06085358572064,46.7407262107885,567.0
403104,Brig,7.9652699275345,46.3118024131504,665.0
403596,Brissago,8.70900265002773,46.1198570561926,280.0
404220,Bristen,8.69838158740549,46.7675886842979,784.0
404292,Broc,7.10815877094767,46.6096568700923,682.0
404976,Brulisau,9.46006697643418,47.2941277690292,928.0
405552,Brusio_CH_METEOSWISS,10.1172230646083,46.2643582672411,856.0
405648,Buch_SH,8.78389383725855,47.7171648002042,414.0
405756,Buchs_Aarau,8.07952700580808,47.3843757260236,386.0
406464,Buffalora,10.2671884155871,46.6481390511309,1968.0
407184,Bulach,8.5277070080153,47.519614442326,403.0
407448,Burgdorf,7.59872097771426,47.0569524736909,534.0
407988,Camedo,8.6075044600833,46.1552942013668,590.0
408084,Campocologno,10.1352583883067,46.2378446423761,577.0
408096,Cavaglia_CH_METEOSWISS,10.0363595326557,46.3678711209266,1707.0
408792,Cevio,8.60316196081943,46.3204986940722,417.0
408864,Chables,6.8157066128306,46.8259820810421,589.0
409572,Chalet_du_Villars,6.71034371876138,46.6037721894544,870.0
409620,Cham,8.45089791666827,47.1795153618909,423.0
409728,Chaneaz,6.7428439540886,46.7292792799775,758.0
410304,Chasseron,6.53771987381685,46.8504655520059,1605.0
410424,Chateau_d_Oex,7.13965902474604,46.4798111036058,1028.0
411384,Chaumont,6.97881201698005,47.0491572830325,1136.0
412092,Chavornay,6.54800242529348,46.7023913654566,439.0
412704,Cheserex,6.17216471554749,46.3984203746452,532.0
412752,Chiggiogna,8.82225525287768,46.4685988311176,695.0
413064,Chippis,7.53206005349089,46.2820500011612,529.0
413208,Chur,9.53048906640336,46.8703647765019,556.0
414792,Cleuson,7.32430749789827,46.113451716096,2200.0
414936,Col_des_Mosses,7.09824580932767,46.3915181997476,1412.0
415476,Col_du_Grand_St_Bernard,7.17071415457314,45.8690798709141,2472.0
417336,Combe_Garot,6.75669183423178,46.9528783131291,629.0
417444,Corcelles_sur_Chavornay,6.60020746703658,46.7029587605948,560.0
417492,Cossonay,6.49308985312224,46.6095038320771,590.0
418056,Cotterg,7.20917871807793,46.085928685741,840.0
418128,Courtelary,7.09063359708085,47.180797464132,695.0
418680,Courtepin,7.12757172374601,46.8600748646365,565.0
418764,Couvet,6.65868122660306,46.9335318971313,728.0
419472,Davos,9.84354139635798,46.8129657001873,1594.0
420540,Degersheim,9.19418397635741,47.3658946760328,830.0
421260,Delemont,7.34954122006178,47.3517022558723,439.0
421980,Dielsdorf,8.46080004593646,47.4837328903611,428.0
422016,Diessenhofen,8.72712313883622,47.691724116213,404.0
422112,Dietikon,8.40446046818621,47.4135630777767,384.0
422568,Dischma,9.88208029062965,46.7719368202549,1710.0
423144,Disentis,8.85346753184552,46.7065725053282,1197.0
423864,Ebnat_Kappel,9.1084859649293,47.2733871957944,623.0
424524,Echallens,6.62176958736409,46.6460989303433,602.0
425124,Effretikon,8.70250534116599,47.4388167581018,478.0
425736,Eggersriet,9.46789512719066,47.4387563478153,770.0
426000,Egolzwil,8.00473824845331,47.1794254310027,521.0
426036,Ehrendingen,8.33921187364367,47.5076425880575,428.0
426528,Eigenthal,8.21861064776943,46.9833353411131,1114.0
427080,Einsiedeln,8.75653317562086,47.1330419571782,910.0
428436,Elm_CH_METEOSWISS,9.17533990526174,46.923752584878,957.0
430092,Engelberg_CH_METEOSWISS,8.41049128619241,46.8216432495441,1035.0
431160,Engstligenalp,7.56527205848026,46.4492468055146,1964.0
431472,Ennetbaden,8.32117530357257,47.4814635791551,420.0
431772,Entlebuch,8.06873792206368,46.9868201194093,768.0
432420,Eptingen,7.81897608626527,47.3858948465256,565.0
432540,Eriswil,7.85047931912902,47.0834202198927,729.0
432648,Erlenbach_im_Simmental,7.52404293464854,46.6584772672115,732.0
433272,Ermatingen,9.08818419694743,47.6716957049273,400.0
433296,Ernen,8.12976389559833,46.3914864494416,1000.0
433404,Eschlikon,8.97287531948111,47.4521334713687,578.0
433968,Escholzmatt,7.93539833196141,46.9034850629801,840.0
434592,Euthal,8.81823408283309,47.0989869208294,910.0
435168,Evolene_Villa,7.50864590880279,46.1122121163738,1825.0
435612,Fahy,6.94116280909391,47.4238031720316,596.0
436236,Fescoggia,8.87510156521415,46.0403996935985,855.0
436344,Fey,7.26670748698211,46.1879514524699,737.0
436668,Fiesch,8.13523409736653,46.402383115172,1063.0
436812,Fieschertal,8.1410258718467,46.4279140109285,1175.0
437124,Filisur,9.68989648970591,46.6708686657114,1030.0
437448,Finhaut,6.97533855859004,46.0828689320915,1242.0
438060,Fionnay_CH_METEOSWISS,7.30898294049046,46.0313509417802,1500.0
438204,Flawil,9.20287896233133,47.4141451894169,571.0
438312,Flims,9.28328574381592,46.8336610786604,1050.0
438900,Fluhli_LU,8.02032146038884,46.8894392770191,939.0
439524,Fraschels,7.20592530183624,46.9964498915718,454.0
439776,Frasco,8.80533227247628,46.3370876904788,880.0
439824,Frauenfeld,8.89370539230937,47.5731011589862,393.0
440532,Fribourg_Posieux,7.1137229915533,46.7713951923672,650.0
441240,Frick,8.01417494149123,47.5136166489088,345.0
441360,Fruence,6.90259901350719,46.5252115058261,812.0
441864,Frutigen,7.65753557615325,46.5990101804881,756.0
442584,Gadmen_CH_METEOSWISS,8.35126288606079,46.7370381003858,1190.0
443304,Geils,7.51244293641669,46.4564445663157,1710.0
443412,Geneve_Aire,6.09053413522957,46.1957211343524,376.0
443496,Geneve_Cointrin,6.12775212464458,46.2474958924019,410.0
444240,Geneve_Observatoire,6.15243038859318,46.1998176497667,405.0
445476,Gerlafingen,7.56591529377043,47.1717500742485,450.0
445488,Gersau,8.5234233093463,46.9960692298013,521.0
445548,Giswil,8.19021175621199,46.849453976163,471.0
445596,Glarus,9.06694087537898,47.0345878658619,516.0
447144,Goschenen_CH_METEOSWISS,8.59535665351517,46.6926859251037,950.0
448572,Goscheneralp_CH_METEOSWISS,8.50001877150235,46.6475339083293,1745.0
449028,Grachen,7.83682027714095,46.1953189926176,1605.0
449748,Grand_Som_Martel,6.7587784763903,47.0276338939901,1292.0
449808,Grande_Dixence_le_Chargeur,7.40338203346014,46.0834238085658,2166.0
450168,Grenchen,7.41511994815108,47.1790936265396,427.0
450276,Grimentz_CH_METEOSWISS,7.57809279790822,46.1799837505092,1512.0
450372,Grimsel_Hospiz_CH_METEOSWISS,8.33325158816464,46.5716973424424,1980.0
451092,Grindelwald,8.03678995989732,46.6297301985509,1152.0
451800,Grono,9.16373769588501,46.255083793925,323.0
452832,Gross_SZ,8.77997738116055,47.1127363352038,897.0
453156,Grossdietwil_Stampfi,7.88534863769414,47.151256447509,710.0
453444,Grosshochstetten,7.64882757184487,46.904880925789,755.0
453456,Gruningen,8.74374263949538,47.2735063260534,535.0
454068,Grusch,9.63227991441134,46.974174626389,590.0
454116,Gryon,7.06916545012412,46.2769382908212,1146.0
454740,Gstaad,7.26948755095215,46.4382142431786,1100.0
455220,Gsteig_Gstaad,7.27851920817498,46.3764273620244,1196.0
455832,Guglera,7.24285365320114,46.7497329849699,877.0
455940,Gurnigelbad_Gassenscheuer,7.44779827261045,46.758762833549,1200.0
455988,Gurtnellen_CH_METEOSWISS,8.62234667759371,46.7292406138324,739.0
456084,Gutsch_Andermatt,8.61504614538835,46.6524409769659,2283.0
456696,Guttannen,8.29170927050258,46.6564535462677,1055.0
458424,Guttingen,9.27941190339583,47.6017302295117,440.0
458784,Hallau,8.47046250709429,47.6972815081919,419.0
459492,Hausen_am_Albis,8.52243936973367,47.239763621497,590.0
460032,Heiden,9.53514359077945,47.4458606902528,800.0
460548,Heiligenschwendi,7.69383591097782,46.7502039624272,1125.0
460692,Herbetswil,7.58792054477071,47.2967041844241,544.0
461184,Heremence,7.40440676739499,46.1782911533386,1218.0
461508,Herisau,9.26307293311226,47.3938857684275,700.0
461760,Herzogenbuchsee,7.71427019202921,47.1928090035199,482.0
462360,Hessigkofen,7.46960904874612,47.14195285359,580.0
462876,Hinterrhein,9.18382104951571,46.5237218315059,1611.0
463344,Hinwil,8.8114292793411,47.3095041143047,539.0
463908,Hoch_Ybrig,8.79009326302905,47.0117601586779,1458.0
464484,Hondrich,7.68073102133747,46.6731408768154,760.0
465108,Horgen,8.58547377802023,47.2657801914368,445.0
465420,Hornli,8.94162793342864,47.3708619548947,1144.0
465456,Hunzikon,8.97571191760217,47.4901835882175,505.0
465492,Huttwil,7.83735336598838,47.1140045683019,633.0
466140,Ilanz,9.21533714424585,46.775037891457,698.0
466728,Innerferrera_CH_METEOSWISS,9.44402374270285,46.520237213477,1475.0
467352,Innerthal,8.91527288219517,47.1064442495425,903.0
467448,Interlaken,7.87019225403791,46.6722403327652,577.0
467988,Isenthal,8.56043844239371,46.9106011514618,778.0
468144,Jaun,7.27589937127014,46.6115691043892,1029.0
468768,Jona,8.84827876470345,47.2239126616652,410.0
469416,Jussy,6.25792041338327,46.228536718566,466.0
470004,Kaiserstuhl_AG,8.41321739122914,47.5706073757931,361.0
470616,Kandersteg,7.67717113859944,46.4938479727643,1178.0
471300,Kiental,7.72709926960044,46.5825825252792,930.0
471780,Kiesen,7.57303273929669,46.8208163224201,535.0
471876,Kiley_Alp,7.50421844199828,46.5451912077419,1375.0
472020,Kirchberg_SG,9.02523106678461,47.4230719224512,695.0
472560,Kleine_Scheidegg,7.95954951529932,46.5849056626604,2061.0
473160,Klontal,9.00146893613495,47.0366949221493,855.0
473784,Klosters,9.88968738046324,46.8651552255999,1186.0
474288,Koppigen,7.60548050315886,47.1188461472439,485.0
475008,Kreuzlingen,9.1600067165355,47.6413368199952,483.0
475620,Kronberg,9.32758153607034,47.2914982763848,1645.0
476196,Kublis_CH_METEOSWISS,9.77748964853866,46.9122766919826,839.0
476616,Kurzeneialp,7.84073696857989,47.0134366462676,894.0
477216,Kusnacht_ZH,8.5853070858221,47.3103362762239,412.0
477528,Kussnacht_am_Rigi,8.43088106523807,47.0975603380198,502.0
477672,L_Abergement,6.49021261573614,46.7561621602582,647.0
477756,L_Auberson,6.44069099022442,46.8234350808776,1096.0
477900,La_Brevine,6.61028604158852,46.9838280565143,1050.0
478608,La_Chaux_de_Fonds,6.79230153416296,47.0829332329927,1017.0
479676,La_Cure,6.07565374500861,46.4602517361179,1185.0
480396,La_Dole,6.09947117370108,46.4247637469471,1669.0
480768,La_Sagne_Eglise,6.81744063530999,47.0512200609375,1050.0
480840,La_Tourne,6.79240269681604,46.9884738136437,1131.0
480900,La_Valsainte,7.17856640214847,46.6477655884658,1044.0
481620,Lachen_Eggen,9.58665370093131,47.4339382204832,930.0
482184,Lachen_Galgenen,8.85867182517104,47.179199997415,468.0
482256,Landquart_CH_METEOSWISS,9.57641608571786,46.9645223257533,537.0
482880,Langenbruck,7.75957919841598,47.3528856245475,731.0
483300,Langnau_am_Albis,8.52529606071308,47.2860630611674,579.0
483840,Langnau_i_E_,7.80640634976112,46.9396378524332,743.0
484908,Lauenen_bei_Gstaad,7.32038943830252,46.426584843965,1250.0
485028,Laufen,7.52676557363499,47.413953615148,404.0
485112,Laufenburg,8.05442300876037,47.5477132081042,329.0
485724,Laupen,7.24100672379574,46.9171065126951,483.0
486264,Lausanne,6.64327788700498,46.5278097005932,601.0
486972,Lauterbrunnen_CH_METEOSWISS,7.90646370514572,46.5929263137707,815.0
487644,Le_Boinod,6.8584547700714,47.0799500169848,1167.0
487716,Le_Brassus,6.159527868544,46.5481652975329,1073.0
488040,Le_Locle,6.74448556429781,47.0544892729558,920.0
488100,Le_Sentier,6.22122822116499,46.5993148806703,1015.0
488388,Le_Sepey,7.05773530196314,46.3712204846352,1267.0
488748,Lenk,7.44687851479383,46.4430372759612,1070.0
488904,Les_Avants,6.94245647479413,46.4568450322361,1036.0
489396,Les_Bioux,6.26132168000143,46.6162010134804,1025.0
489720,Les_Brenets,6.71021089010949,47.0719523670392,908.0
490044,Les_Charbonnieres,6.31243393996268,46.670130832138,1045.0
490092,Les_Diablerets,7.16634751842945,46.3468594232181,1191.0
490812,Les_Marecottes,7.01662042340665,46.1188971647239,990.0
491028,Les_Petits_Ponts,6.7544883199722,46.992751103705,1008.0
491100,Les_Plans_sur_Bex,7.08798662478599,46.2553637237168,1070.0
491412,Les_Ponts_de_Martel,6.72717177865542,46.9975050441056,1052.0
492120,Les_Rangiers,7.21931964333812,47.3845092597612,856.0
492588,Les_Rots,6.6835191054611,46.9630692754472,1090.0
492648,Leukerbad,7.62164795911121,46.3670400502295,1286.0
493368,Leysin_CH_METEOSWISS,7.00754955508658,46.3412641969045,1320.0
493980,Linthal_Tierfehd,8.98370669217368,46.8792197478743,810.0
494700,Locarno_Monti,8.78756802980269,46.1724945153342,366.0
495732,Lohn_SH,8.67762999705232,47.7519482803483,585.0
496068,Longirod,6.25829418616218,46.4961189165204,900.0
496680,Lorzentobel,8.55461982206522,47.1805353703307,536.0
497292,Lugano,8.96030470692512,46.0042278004735,273.0
499176,Lungern,8.16250653773248,46.7850791611069,740.0
499836,Luterswil,7.43546673968348,47.1207288716108,575.0
499896,Luthern,7.91859980648179,47.058203650543,767.0
500592,Luzern,8.30100005876717,47.0364403084051,454.0
502236,Madiswil,7.79730443232092,47.1603792004618,542.0
502800,Magadino_Cadenazzo,8.93365736635328,46.1600289458381,203.0
503496,Magglingen,7.21501053996214,47.1407928603119,883.0
503556,Marbach_LU,7.90214969431118,46.8573158522294,864.0
504180,Marmorera,9.63461009170821,46.5105037322306,1695.0
504276,Marsens,7.06967054406609,46.6564774562244,714.0
505020,Martigny,7.0625407870851,46.1097855943024,461.0
505752,Martigny_Ville,7.07065633160628,46.1222534134881,592.0
506076,Martina,10.4630095770132,46.8840113904175,1041.0
506652,Mauvoisin,7.34209581326823,46.0029138620601,1841.0
507060,Meiringen,8.16924223566251,46.7322308625427,588.0
508488,Melchthal,8.29132827783318,46.8360069020223,875.0
508560,Menzberg,7.99689065210165,47.0366212935899,1035.0
508956,Merishausen,8.60959397756985,47.7571050250769,525.0
509388,Mervelier,7.4900247307182,47.3466175952709,540.0
509424,Mesocco,9.23108337041321,46.3956016746649,825.0
509988,Mettmenstetten,8.46244505511414,47.2451698189489,470.0
510060,Mogelsberg,9.13603030595458,47.3614294678395,766.0
510624,Mohlin,7.87789410086004,47.5721967525227,343.0
510672,Monstein,9.77238880067505,46.7113532623332,1633.0
510720,Mont_Soleil,6.99369355283365,47.1586317900202,1180.0
511416,Montagne_du_Droit,6.93536240958088,47.1492158278122,1170.0
511488,Montagnier_Bagnes,7.22529367182888,46.0710188946377,839.0
511596,Montana_CH_METEOSWISS,7.46082392815099,46.2987996848186,1427.0
512676,Monte_Bre_s_Lugano,8.98609812198038,46.0091485005225,905.0
513060,Montenol,7.15289834659465,47.353854626641,694.0
513384,Monthey,6.9722701229362,46.259982126718,395.0
513708,Montreux_Clarens,6.89938490828101,46.4424526825171,405.0
514440,Morbio_Superiore,9.02906007462675,45.8614987281725,594.0
514560,Morges,6.5109520412722,46.516594242774,374.0
514668,Morgins_CH_METEOSWISS,6.85165361051986,46.2360298448722,1340.0
514740,Moriken_Wildegg,8.17226556874369,47.420531211994,405.0
514944,Mormont,7.03731150756552,47.4381010490673,535.0
515556,Mosen,8.23280695549262,47.2438416951506,453.0
516144,Mosogno,8.6409125329423,46.1985141013366,771.0
516660,Mottec,7.62404780665531,46.1479026807697,1580.0
516756,Moudon,6.80306203135473,46.6761694618181,563.0
517008,Moutier,7.37174476858111,47.2721617325165,579.0
517620,Muhleturnen,7.50794802925595,46.814064335932,574.0
517716,Mullheim_CH_METEOSWISS,9.0027661175405,47.6022651443209,413.0
517764,Muri_AG,8.32759574704116,47.2653855750886,577.0
518352,Murren_CH_METEOSWISS,7.89089181951228,46.5580587894495,1641.0
519084,Murten,7.13643329799837,46.9421179752592,433.0
519216,Mustair,10.4585111789719,46.6354200015924,1248.0
519792,Nesselboden,7.50856605556475,47.245168379502,1055.0
519816,Neuchatel,6.95327898263473,47.0000549097262,485.0
520884,Niederneunforn,8.77969301876852,47.5955242910873,440.0
520980,Nyon,6.24092843906847,46.3819849610287,390.0
521052,Nyon_Changins,6.22773725575049,46.4010255946396,455.0
521328,Oberiberg_CH_METEOSWISS,8.77864575490202,47.0373901520897,1075.0
522036,Obstalden,9.16339794203071,47.1138825978446,689.0
522156,Olivone,8.93632994534728,46.5287285205442,890.0
522420,Olten,7.89555993432528,47.3437036692284,413.0
522828,Opfikon,8.56032734675431,47.437638681003,424.0
522888,Orbe,6.54567507219852,46.7355145794158,438.0
523596,Orsieres,7.14194386235327,46.021407963016,929.0
523968,Orzens,6.6817323857241,46.7220166137586,624.0
524496,Otelfingen,8.38714404747069,47.4606139933496,435.0
524700,Passo_del_Bernina,10.0195608372324,46.4091626029774,2260.0
525336,Payerne,6.9424691106046,46.811572545059,490.0
526044,Payerne_Ville,6.93550396935181,46.8333921720747,447.0
526656,Pfaffikon_ZH,8.76986761383552,47.365521392569,540.0
527172,Pigniu,9.11513350254672,46.8102936809337,1325.0
527244,Piotta,8.68803253594506,46.5148150183928,990.0
527796,Plaffeien_PLF,7.2662598477215,46.7477109927837,1042.0
528204,Platta_Medel_,8.85363391964435,46.6580497954412,1375.0
528444,Pleigne,7.27540523765177,47.4184928179908,738.0
528648,Pontresina,9.89604380332415,46.4913510147622,1774.0
529224,Poschiavo_Robbia,10.0630164249924,46.3472120502344,1078.0
529956,Preda,9.77754839239554,46.5877467980506,1796.0
530064,Pully,6.66752131164521,46.5122699897941,455.0
530448,Punt_la_Drossa,10.1899909538347,46.6537480797078,1713.0
530592,Reckingen,8.24219798516169,46.4687868995092,1325.0
530904,Rempen,8.89678605096426,47.1383837071362,650.0
531048,Rheinfelden_CH_METEOSWISS,7.79688133664245,47.5470494557364,300.0
531648,Ricken,9.05968739465723,47.2626224197574,836.0
531672,Rieden,9.04782688968459,47.2242657374067,730.0
531744,Riedholz_Wallierhof,7.56268252323857,47.2342757336211,518.0
531912,Riehen,7.62375665853767,47.5742555351243,260.0
532164,Rietholz,9.01303497902863,47.3746243497642,715.0
532188,Riggisberg,7.48350955064647,46.8116476027413,775.0
532272,Rigi_Kaltbad,8.46638004402109,47.0445333360016,1453.0
532572,Rigi_Kulm,8.48502913598269,47.0560594057276,1793.0
532992,Romont,6.93489855729712,46.7036909670924,692.0
533652,Rorschach,9.48201038848171,47.4817205044368,445.0
533952,Rothenbrunnen,9.41845576635241,46.7657121331809,622.0
534480,Ruschegg,7.39280483681177,46.7802525798527,930.0
534576,S_Bernardino,9.18468310180037,46.4635489391945,1638.0
535272,Saanen,7.3012732528894,46.5155838539486,1368.0
535572,Saas_Almagell,7.95623894527878,46.0952346412808,1673.0
536028,Saas_Balen,7.92455352583627,46.1599647255692,1461.0
536364,Saas_Fee_SAA,7.92556311464117,46.1062559183386,1785.0
536820,Saas_Fee_SAF,7.93318724232396,46.1112783742723,1796.0
536844,Safien_Platz,9.31506742489808,46.67871087374,1296.0
537528,Saignelegier,6.98123513788211,47.2566803932376,883.0
538068,Salen_Reutenen,9.02390055889646,47.6512454643719,718.0
538752,Salez_Saxerriet,9.4930757290658,47.2329632555736,436.0
539328,Samedan_CH_METEOSWISS,9.87945144128755,46.5262508950541,1708.0
540408,Sangernboden,7.34996139599923,46.716314376401,1035.0
540732,Santis,9.34340304441679,47.2494280897779,2502.0
541800,Sargans,9.43997274591282,47.053853800281,590.0
542508,Sarnen,8.24667296201728,46.8914752052745,475.0
543216,Sattel_SZ,8.6369516914724,47.0810675624312,790.0
543696,Savognin,9.59713263631186,46.5947599260091,1172.0
543828,Schaan,9.49067573019827,47.1869916100728,444.0
544404,Schaffhausen,8.6201225402786,47.6898392690505,438.0
544944,Schanis,9.02074161682169,47.1703020641454,415.0
545568,Schiers,9.66805572209398,46.9755088141196,626.0
545988,Schinznach_Dorf,8.14863397491991,47.4472123379073,365.0
546120,Schleitheim,8.4817676512033,47.7443537984455,497.0
546732,Schwabrig_SWB,9.48947478642811,47.3862186816922,1160.0
546768,Schwabrig_SWI,9.48629157155446,47.3826762582107,1155.0
546924,Schwagalp_CH_METEOSWISS,9.31718349765108,47.2564445851569,1348.0
547068,Schwarzenburg,7.3488822397255,46.8135990148749,806.0
547632,Schwarzenegg,7.72274849650017,46.8055478982619,902.0
547764,Schwarzsee_Bad,7.27425944637611,46.6654500784041,1060.0
547800,Schwellbrunn,9.2349939598202,47.3470036687908,1033.0
547860,Schwyz,8.64410837240602,47.020422189888,479.0
548652,Scudellate,9.03934429407564,45.9217238708756,918.0
548700,Scuol_CH_METEOSWISS,10.283238923471,46.7932738525337,1303.0
549768,Sedrun_CH_METEOSWISS,8.74518559319832,46.6723452811939,1429.0
550332,Seengen,8.18844862472374,47.3274225526337,445.0
550824,Seewis,9.63816089219034,46.9893596034147,950.0
550908,Segl_Maria,9.76230553791219,46.4323305193417,1804.0
552792,Sempach,8.19568579086341,47.1353313021234,532.0
552936,Semsales,6.93130311540983,46.5759807835876,874.0
553260,Sevelen,9.48952889220992,47.124404958668,457.0
553872,Siebnen,8.90047275813112,47.1715154351986,452.0
553980,Sierre,7.55724008884232,46.2984706076094,536.0
554220,Signal_de_Bougy,6.3532841386053,46.4839687547389,695.0
554328,Sihlbrugg,8.57827162016201,47.220568071432,549.0
554856,Sihlsee,8.78208646813711,47.1542649397697,895.0
555156,Simplon_Dorf_CH_METEOSWISS,8.05542532731212,46.1969468799826,1467.0
555816,Sion_ION,7.35891703230822,46.2377106883639,542.0
557292,Sion_SIO,7.33021445357744,46.2186428546253,482.0
558036,Sissach,7.803355148022,47.4643746758006,380.0
558324,Soglio,9.53520088413533,46.3422495340971,1086.0
558456,Solothurn,7.53222442166008,47.2158562603648,465.0
558732,Sonogno,8.78822384610906,46.3495917011568,910.0
558840,Splugen_SDO,9.32196346240758,46.5526049602077,1460.0
558972,Splugen_SPL,9.32176065169155,46.554272985564,1504.0
559020,St_Antonien_CH_METEOSWISS,9.82590253378655,46.9721306444614,1456.0
559092,St_Gallen,9.3985161714995,47.4254774516025,775.0
560076,St_Gotthard_Hospiz,8.56832665771734,46.5549869322934,2090.0
560568,St_Moritz_CH_METEOSWISS,9.83973268224589,46.4977127441123,1825.0
560928,St_Peterzell,9.17471707058995,47.3170679506386,700.0
561492,St_Sulpice,6.55587878953828,46.9104297970334,760.0
561636,St_Urban,7.84955214435484,47.2203352324872,491.0
561888,Sta_Maria_Val_Mustair,10.4263039677619,46.602250948088,1386.0
562968,Stabio,8.93234865890632,45.8434568709144,353.0
563064,Stalden_Ackersand,7.87464778583089,46.2409498359692,700.0
563604,Stallikon,8.50101069050861,47.3046397336935,754.0
563928,Stans,8.34554763164729,46.9691961012195,439.0
564060,Starkenbach,9.25043818738243,47.1848715250084,897.0
564108,Steckborn,8.97189817019269,47.6621353816297,399.0
564612,Stein_AR,9.3459640724035,47.3795912078138,780.0
565092,Sternenberg,8.9148141075708,47.3857271227702,875.0
565176,Stiegelschwand,7.53344085943758,46.4881027109372,1466.0
565752,Tafers,7.21613018246901,46.8190835222555,654.0
565836,Tamins,9.4069203948262,46.8317246258809,667.0
566460,Tavanasa,9.04521169228916,46.7507015336772,800.0
567072,Tete_de_Ran,6.85713977864236,47.0555663151723,1325.0
567132,Teufen_AR,9.39606113441963,47.3879207918985,834.0
567852,Thun,7.58521122408836,46.7498546426325,570.0
568560,Thusis_CH_METEOSWISS,9.44170257880762,46.7094175214765,672.0
569184,Tiefencastel,9.57446241273698,46.6636243562121,897.0
569808,Torricella_Crana,8.89536046085884,46.0758218628513,1002.0
569952,Tour_de_Gourze,6.74095856554075,46.5103256170035,915.0
570576,Trogen,9.45459270356538,47.3991590021961,975.0
571152,Trun,9.00883458414813,46.7444059082881,834.0
571776,Tschiertschen,9.60812951553139,46.8196678938407,1273.0
572400,Turtmann,7.68626086558563,46.2961668095572,621.0
572664,Uerikon,8.75586679790207,47.2356219110819,415.0
572748,Ulrichen_CH_METEOSWISS,8.30822800006638,46.5048880097845,1345.0
573072,Unterageri,8.57850583759695,47.1343330558639,733.0
573180,Unterkulm,8.11106673775182,47.3198218663758,454.0
573336,Unterschachen,8.77528354986507,46.8713185354015,1470.0
573468,Urnasch,9.27978670890581,47.3120647322537,825.0
573624,Urnerboden,8.91706570195139,46.8988138139092,1395.0
574344,Uster,8.69216185758249,47.3509009052767,438.0
574440,Vaduz,9.51755694957612,47.1274734988546,457.0
574980,Val_d_Illiez,6.89133808714195,46.1959281446063,870.0
575220,Vallorbe,6.38451055313877,46.7128610794665,748.0
575928,Vallorbe_Reposoir,6.33978682080665,46.6996634820814,920.0
576072,Vals_CH_METEOSWISS,9.18869618869842,46.6277606771914,1242.0
576132,Vattis,9.44358944689227,46.9090838725454,939.0
576840,Vella,9.17378616756057,46.7190367656936,1245.0
576924,Vernayaz,7.03623696311284,46.1338388866047,453.0
577260,Vevey_Corseaux,6.81506610550972,46.4712294100019,405.0
577704,Vicosoprano_Lobbia,9.62064548441859,46.3515781961146,1060.0
578184,Villars_Tiercelin,6.71007473844342,46.6217623425822,859.0
578268,Vira_Gambarogno,8.85462427007983,46.146544744736,225.0
578928,Visp,7.8429544477086,46.3029040962866,639.0
579636,Vorderthal,8.89965315544142,47.1178354991287,760.0
579948,Vrin,9.10346477457991,46.6558065871096,1384.0
580092,Wadenswil,8.67769296759791,47.2209626455342,485.0
580212,Wahlendorf,7.33672518018036,47.0044676812934,760.0
580296,Walchwil,8.51682094881097,47.0987651986118,449.0
580596,Wald_Faltigberg,8.94275249103389,47.2774594377993,908.0
580896,Wald_Tanne,9.51974700594583,47.4201368534654,1075.0
580944,Waldegg,8.45477791121025,47.3622741774839,545.0
581568,Wangen_b_Olten,7.87894565766712,47.3348635991069,435.0
581772,Wasen_im_Emmental,7.80511685797475,47.045398553784,770.0
582024,Weesen,9.08608159378629,47.1316253128443,425.0
582132,Weggis,8.44152580361143,47.0314394268207,440.0
582372,Weinfelden,9.11850909061263,47.5683788800751,477.0
582444,Weissenstein_CH_METEOSWISS,7.48486144541704,47.2506038762226,1228.0
582552,Weissfluhjoch_CH_METEOSWISS,9.80636969652691,46.8333250908785,2691.0
583296,Weisstannen,9.34353900294002,46.9876163120586,1010.0
583380,Wernetshausen,8.86716145329862,47.2930394657291,690.0
583596,Widnau,9.64305699333635,47.369442303416,411.0
583836,Wil_ZH,8.50701905596309,47.6047873838267,406.0
583932,Wilchingen,8.46451258036855,47.6679686017725,422.0
584544,Wildhaus,9.36736363438195,47.2008935654054,998.0
585156,Wimmis,7.66378441707464,46.6707826816084,648.0
585780,Winterthur_Seen,8.76317961625103,47.4746765863232,506.0
586116,Wittnau,7.96852144833244,47.4804032268268,463.0
586176,Witzwil,7.05255734456713,46.9988680264246,433.0
586296,Wynau,7.7874490567561,47.2550163880744,422.0
586800,Yverdon_les_Bains,6.65099298023493,46.7818826541621,432.0
587328,Zermatt_CH_METEOSWISS,7.75244282679138,46.0292736718417,1638.0
588072,Zernez_CH_METEOSWISS,10.0896106321722,46.6978652000474,1470.0
588660,Zervreila_CH_METEOSWISS,9.11878859286535,46.5788049058965,1738.0
588756,Zofingen,7.94337957825215,47.2801916583132,432.0
589332,Zugerberg,8.53310542204042,47.1440037429158,927.0
589968,Zurich_Albishof,8.51411367938374,47.3576800532648,453.0
590124,Zurich_Bot_Garten,8.534638789455,47.3708898582289,410.0
590388,Zurich_Fluntern,8.56571839164715,47.3779218339088,555.0
592260,Zurich_Kloten,8.53595000135043,47.4796088599098,426.0
593004,Zurich_Uetliberg,8.48753539857779,47.3524375073572,814.0
593460,Zurzach,8.30318509766487,47.582785604953,338.0
593472,Zweisimmen,7.38478895377909,46.5505937380804,1015.0
594108,Adelboden_CH_SLF,7.5607087365921,46.4920442181222,1325.0
594912,Alp_Grum,10.0314004791287,46.3742855680945,2090.0
595728,Andermatt_CH_SLF,8.59190276694346,46.633200425625,1440.0
596688,Arolla,7.48029668812446,46.02813637878,2070.0
597144,Arosa_CH_SLF,9.68291835906421,46.7923152422965,1845.0
597948,Bellinzona_CH_SLF,9.00638879446987,46.1920986830153,230.0
598860,Bergun,9.74830592225018,46.6304621578878,1380.0
599664,Bernina_Diavolezza,9.98420650660326,46.4410138254565,2090.0
600576,Berninapass,10.0195767708582,46.408667657281,2255.0
601392,Bivio_CH_SLF,9.65102740384449,46.4688790987272,1770.0
602208,Bosco_Gurin_CH_SLF,8.49706980545677,46.3188863028936,1525.0
603096,Bourg_St_Pierre_CH_SLF,7.20834964305779,45.9460924350215,1670.0
604020,Braunwald_CH_SLF,8.98842217658589,46.9381315336204,1310.0
604824,Brusio_CH_SLF,10.124730709602,46.2605439081836,800.0
605724,Campo_Blenio,8.93670340825717,46.5554096577562,1215.0
606552,Cavaglia_CH_SLF,10.0436704131334,46.3644183204645,1690.0
607464,Curaglia,8.8583159850684,46.6721170991318,1330.0
608052,Davos_Fluelastr_,9.84827531686228,46.8127042603137,1560.0
608952,Elm_CH_SLF,9.15201728350957,46.9274783520724,1690.0
609396,Engelberg_CH_SLF,8.42400520919727,46.8188829378593,1023.0
610248,Fionnay_CH_SLF,7.30911219643001,46.0313963547121,1500.0
611016,Flumserberg,9.29444993847746,47.0890143717766,1310.0
611832,Ftan,10.2373524351835,46.7922210025623,1710.0
612648,Gadmen_CH_SLF,8.35230364205639,46.7366701750286,1190.0
613524,Goschenen_CH_SLF,8.58113656275063,46.6675854510756,1110.0
614208,Goscheneralp_CH_SLF,8.51822383384266,46.6518253895143,1550.0
614664,Grimentz_CH_SLF,7.57994425941687,46.1847584230992,1560.0
615480,Grimsel_Hospiz_CH_SLF,8.33281778355879,46.5714762429812,1970.0
616344,Grindelwald_Bort,8.05139242955833,46.6472847309809,1565.0
617220,Gsteig,7.27851937955427,46.3764275975646,1195.0
618024,Gurtnellen_CH_SLF,8.62645320091577,46.7374749003405,950.0
618708,Hasliberg,8.22031110285635,46.7569015659214,1825.0
619452,Innerferrera_CH_SLF,9.44272129543712,46.520260487112,1460.0
620352,Jaunpass,7.33946495562307,46.5934720679209,1520.0
620964,Klosters_KW,9.88765130938901,46.8636601543916,1190.0
621816,Klosters_RhB,9.88123688532704,46.8631223976187,1188.0
622716,Kublis_CH_SLF,9.76908174650493,46.9152291419617,815.0
623616,Kuhboden,8.10457121247391,46.4150720042807,2210.0
624072,La_Comballaz,7.08301963116229,46.3800290202516,1360.0
624888,La_Creusaz,6.99650222377037,46.1192969904427,1720.0
625344,La_Drossa,10.1903101557774,46.6538487267177,1710.0
626196,Landquart_CH_SLF,9.55545396063846,46.9662614486874,520.0
627096,Lauchernalp,7.7748347076214,46.4117590621408,1975.0
627720,Lauterbrunnen_CH_SLF,7.91189662677605,46.588936925816,800.0
628596,Leysin_CH_SLF,7.02510710540855,46.3519270954699,1300.0
629568,Malbun,9.60856982855367,47.1031244701367,1610.0
630216,Maloja,9.69728351418381,46.3990327159276,1810.0
631068,Matta_Frauenkirch,9.79003765748845,46.7668508816652,1655.0
631776,Meien,8.55683133463003,46.7245038692662,1320.0
632580,Montana_CH_SLF,7.47707056862491,46.3138364548674,1590.0
633420,Morgins_CH_SLF,6.85942973545188,46.2362502172715,1320.0
634176,Motta_Naluns,10.2711472355302,46.8105603097944,2150.0
634692,Munster,8.26375018234074,46.4904482511755,1410.0
635604,Murren_CH_SLF,7.89017800445584,46.5584397728652,1650.0
636480,Oberiberg_CH_SLF,8.77869683249789,47.0399537332247,1060.0
637284,Obersaxen,9.11095074835364,46.7473281082429,1420.0
638184,Oberwald,8.35028915817221,46.5322490330547,1370.0
638916,Planachaux,6.84286668036995,46.1743625661594,1870.0
639516,Poschiavo,10.05383364438,46.3244009767988,1015.0
640416,Pusserein,9.70984653063677,46.9834621647487,940.0
641088,Rigi_Scheidegg,8.52262066662654,47.0272840423577,1640.0
641724,Ritom_Piora,8.6721551011015,46.5271883721391,1800.0
642516,Robiei,8.51301534226739,46.442437780388,1890.0
643236,Ruinettes,7.25298536221519,46.0914974533132,2200.0
643800,Saanenmoser,7.29751233919788,46.5187639358308,1390.0
644616,Saas_Fee,7.92665476979672,46.1039216616917,1790.0
645576,Samedan_CH_SLF,9.86620529598327,46.5329700032047,1750.0
646512,Samnaun,10.3952176140881,46.96053390237,1750.0
647268,San_Bernardino,9.18461717937121,46.4635142878912,1640.0
648108,Schwagalp_CH_SLF,9.31652971207078,47.2566354753309,1350.0
649008,Scuol_CH_SLF,10.2853997997898,46.7937333312873,1285.0
649944,Sedrun_CH_SLF,8.7688336727133,46.6794044182234,1420.0
650640,Siat,9.16372684370834,46.7898478734277,1273.0
651456,Simplon_Dorf_CH_SLF,8.05604714147729,46.1969257789867,1470.0
652128,Simplon_Hospiz,8.02990085583961,46.2467227411682,2000.0
652920,Sorenberg,8.02812444985661,46.8255221429076,1150.0
653856,Splugen,9.32862053277014,46.5546093589044,1457.0
654696,St_Antonien_CH_SLF,9.83408116312356,46.9739131014802,1510.0
655596,St_Margrethenberg,9.50728003779771,46.981628766764,1190.0
656400,St_Moritz_CH_SLF,9.83835237921192,46.4992002677811,1850.0
657252,Sta_Maria,10.419326355653,46.6000577271215,1415.0
658104,Stockhorn,7.54157169842179,46.6836956628838,1640.0
658764,Stoos,8.67453836012729,46.9742899747726,1280.0
659592,Thusis_CH_SLF,9.44056191525028,46.6980636922995,701.0
660384,Trubsee,8.39527747230215,46.7914642651875,1780.0
661344,Ulrichen_CH_SLF,8.30826701891419,46.5048699871064,1345.0
662304,Unterwasser_Iltios,9.31139373138275,47.1855512175443,1340.0
663060,Vals_CH_SLF,9.18080566677971,46.6204047931953,1260.0
663732,Valzeina,9.60540482735888,46.9565090938197,1090.0
664212,Weissfluhjoch_CH_SLF,9.80923663796561,46.8296303901205,2536.0
665172,Wengen,7.92131702451729,46.6064391782404,1280.0
666060,Wiler,7.78376720898872,46.4052552724519,1450.0
666900,Zermatt_CH_SLF,7.7506294381317,46.0237557453038,1600.0
667812,Zernez_CH_SLF,10.089995885399,46.6977125282715,1475.0
668616,Zervreila_CH_SLF,9.11878808064146,46.5787782691948,1735.0
669372,Zuoz,9.96265900553809,46.6045804775829,1710.0
670308,Aach,8.8493,47.8413,478.0
670968,Aalen_Unterkochen,10.1285,48.814,473.0
671304,Aalen_Unterrombach,10.0598,48.8361,455.0
671616,Abbach_Bad_Dunzling,12.1079,48.8857,378.0
672060,Abensberg_Sandharlanden,11.8194,48.8421,380.0
672552,Abtsgmund_Neubronn,9.971,48.8795,471.0
673104,Abtsgmund_Untergroningen,9.9129,48.922,432.0
673848,Achberg_Doberatsweiler,9.6983,47.6105,498.0
674580,Achern_Fautenbach,8.0466,48.6317,138.0
675132,Adelmannsfelden,10.006,48.954,470.0
675540,Affing,10.9795,48.4612,470.0
675984,Aholfing,12.4639,48.945,325.0
676428,Aibling_Bad_Ellmosen,12.0239,47.878,509.0
677136,Aichstetten,10.0796,47.8922,623.0
677508,Aiglsbach,11.7022,48.6929,405.0
677952,Aislingen,10.4591,48.5032,460.0
678348,Aiterhofen,12.6171,48.8443,339.0
678396,Aitern_Untermulten,7.8569,47.8191,1018.0
678804,Aitrang,10.5374,47.8172,747.0
679512,Albaching,12.1049,48.1094,513.0
679944,Albstadt_Badkap,8.9784,48.2156,759.0
680412,Albstadt_Burgfelden,8.9329,48.2413,911.0
680832,Albstadt_Ebingen,9.0371,48.2052,712.0
681120,Albstadt_Onstmettingen,9.0001,48.2766,794.0
681456,Aldersbach_Kriestorf,13.0506,48.6159,340.0
682176,Alfdorf_Pfahlbronn,9.6842,48.8354,493.0
682500,Alpirsbach_Klaranlage_,8.3944,48.3226,400.0
682800,Altensteig_Wart,8.6501,48.6171,594.0
683436,Altheim_Kreis_Biberach,9.4596,48.1479,533.0
683988,Althengstett_Ottenbronn,8.7493,48.7359,530.0
684408,Altmannstein_Laimerstadt,11.7114,48.8821,430.0
684672,Altmannstein_Pondorf,11.5694,48.9437,530.0
685116,Altomunster_Maisbrunn,11.3117,48.406,510.0
685896,Altomunster_Wollomoos,11.1984,48.4012,505.0
686616,Altusried_Krugzell,10.2538,47.7985,642.0
687540,Altusried_Muthmannshofen,10.0988,47.7922,730.0
688308,Amerang_Kammer,12.3132,48.0027,530.0
688716,Amerang_Pfaffing,12.2924,48.0197,515.0
689076,Amerdingen,10.4915,48.7258,492.0
689628,Andechs_Erling,11.1778,47.9636,682.0
690276,Anger_Oberhogl,12.8984,47.8013,690.0
690876,Anger_Stoissberg,12.8192,47.803,830.0
691584,Apfeldorf,10.932,47.8963,664.0
692028,Arnstorf,12.8126,48.5565,385.0
692472,Aschau_Innerkoy,12.3368,47.786,607.0
693180,Aschau_Sachrang,12.2731,47.7002,731.0
694188,Aschau_Stein,12.2982,47.7274,680.0
694896,Aspach_Allmersbach_am_Weinberg,9.3933,48.9957,318.0
695292,Attenkam,11.3642,47.8774,672.0
696240,Au_am_Rhein,8.2324,48.9501,109.0
696612,Au_i_d_Hallertau_Gunzenhausen,11.7117,48.5515,483.0
696684,Auerberg,10.7333,47.7333,1045.0
697164,Aufkirchen,11.8586,48.306,480.0
697512,Augsburg,10.942,48.4254,461.4
698388,Augsburg_Hochablass_,10.9351,48.3474,486.0
698760,Augsburg_Sankt_Stephan_,10.8948,48.3723,490.0
700080,Aulendorf_Haslach,9.6804,47.9655,565.0
700860,Aying_Kleinhelfendorf,11.8103,47.9422,641.0
701232,Babenhausen,10.2559,48.1496,565.0
701784,Backnang,9.4336,48.9546,291.0
702300,Bad_Birnbach,13.0951,48.4416,360.0
702708,Baden_Baden_Geroldsau,8.2458,48.727,240.0
703560,Baierbach,12.206,48.4158,460.0
703896,Baiern_Kleinrohrsdorf,11.9153,47.9952,552.0
704496,Baiersbronn_Mitteltal,8.3176,48.5116,596.0
704964,Baiersbronn_Obertal,8.2727,48.5293,622.0
705192,Baiersbronn_Ruhestein,8.2229,48.5615,916.0
705672,Baiersbronn_Schonegrund,8.4059,48.5699,559.0
706224,Baiersbronn_Zwickgabel,8.3185,48.5879,548.0
706512,Baindt,9.6606,47.8413,467.0
706572,Balderschwang,10.1043,47.465,1037.0
707400,Balgheim,8.7682,48.0694,710.0
707820,Balingen_Heselwangen,8.8831,48.2772,571.0
708576,Baltmannsweiler_Hohengehren,9.4514,48.7573,457.0
709128,Bartholoma,9.9855,48.7584,659.0
709680,Bayerbach_Holskofen,12.2893,48.6865,435.0
710088,Bayersoien_Bad,10.9956,47.6919,812.0
711084,Bayrischzell,12.0017,47.6797,789.0
711336,Benediktbeuern,11.4139,47.7063,630.0
712044,Berchtesgaden_KKst_,13.0109,47.6344,550.0
712440,Berchtesgaden_Obersalzberg,13.0503,47.6327,930.0
713124,Berchtesgaden_Unterau,13.0558,47.6523,715.0
713532,Berglen_Birkenweissbuch,9.4881,48.8498,402.0
713952,Berkheim,10.0808,48.0409,570.0
714444,Bernau_Goldbach,8.0256,47.815,928.0
715368,Bernau_Kreis_Rosenheim,12.3974,47.823,522.0
715872,Bernbeuren,10.7833,47.7333,750.0
715896,Bernbeuren_Prachtsried,10.7448,47.7388,936.0
716268,Bernried_Niederbayern_Buchet,12.9267,48.9207,495.0
716652,Biberbach_Markt,10.8118,48.5346,436.0
717708,Bingen_Kreis_Sigmaringen,9.2756,48.1135,630.0
718140,Bischofsmais,13.0795,48.9184,684.0
718740,Bischofswiesen_Engedey,12.947,47.6141,592.0
719580,Bischofswiesen_Loipl,12.9251,47.6522,870.0
720288,Bischofswiesen_Winkl,12.9415,47.6872,690.0
720996,Bissingen_Klaranlage_,10.6283,48.7092,425.0
721428,Bitz,9.1007,48.2435,854.0
721848,Blaubeuren_Wennenden,9.7443,48.4369,705.0
722652,Blaustein_Bermaringen,9.8361,48.4618,635.0
723048,Blindheim,10.6218,48.6326,420.0
723492,Blumberg,8.5362,47.8422,707.0
723972,Bobing,10.9865,47.753,744.0
724416,Bobingen,10.8215,48.2638,514.0
724968,Boblingen,8.9732,48.6759,445.0
725304,Bockhorn_Oberbayern_Grunbach,12.0032,48.3286,453.0
725844,Bodenkirchen_Aich,12.4054,48.4241,464.0
727020,Bodman_Ludwigshafen,9.0457,47.7949,415.0
727416,Bodnegg_Billen,9.6833,47.7167,640.0
727836,Bogen_Pfelling,12.7451,48.8848,345.0
728376,Bohming,11.3667,48.9451,379.0
728568,Boll_Bad,9.6233,48.6397,423.0
729120,Bondorf,8.8329,48.5251,456.0
729504,Bonndorf_Schwarzwald_Martinstr_,8.3333,47.8167,850.0
729828,Boos,10.1977,48.0791,569.0
730596,Bopfingen_Baldern,10.3121,48.9015,530.0
731064,Bopfingen_Flochberg,10.3644,48.8474,498.0
731820,Bottingen,8.8032,48.1063,928.0
732492,Brannenburg_Degerndorf,12.1091,47.7241,481.0
733200,Breisach,7.5845,48.0222,194.0
733620,Breitenbrunn_Furbuch,10.3649,48.1266,610.0
734004,Breitingen,9.9905,48.5168,536.0
734424,Breitnau,8.0761,47.9385,1001.0
734976,Bruckberg_Niederbayern_Porndorf,11.9872,48.5639,500.0
735516,Brunnsteinhaus,12.0982,47.6446,1345.0
736164,Buchau_Bad,9.6167,48.0575,585.0
736584,Buchenbach,7.9983,47.9625,445.0
737004,Buchenberg,10.2405,47.6983,900.0
737844,Buchenberg_Kreuzthal,10.1311,47.7083,845.0
738552,Buchlberg_Kammerwetzdorf,13.5461,48.6582,460.0
738864,Buchlberg_Tannod,13.5078,48.6549,460.0
739668,Buchloe,10.7409,48.0374,626.0
740604,Buhlertal,8.1744,48.6957,190.0
741144,Buhlertal_Obertal,8.1799,48.6743,478.0
741492,Burchau,7.8274,47.7694,710.0
742080,Burgau,10.4013,48.4307,480.0
742632,Burgkirchen_Gendorf,12.7256,48.1785,425.0
742980,Burgkirchen_Schonberg,12.7243,48.1527,450.0
743532,Burladingen,9.1157,48.2929,780.0
743964,Chieming,12.5404,47.8843,551.2
744084,Chieming_Chiemsee,12.5396,47.8899,525.0
744816,Chiemsee_Herrenchiemsee,12.3949,47.8677,536.0
745368,Dachau,11.4403,48.2466,482.0
745812,Dachsberg_Wolpadingen,8.1057,47.7003,880.0
746364,Dasing_Klaranlage_,11.0594,48.395,460.0
746808,Deckenpfronn,8.8262,48.6515,560.0
747216,Deggendorf,12.9498,48.8354,313.0
747816,Deggenhausertal_Azenweiler,9.4108,47.8007,708.0
748248,Deisenhofen_Kreis_Munchen,11.5777,48.0368,585.0
748644,Denkendorf,11.45,48.9167,518.0
749064,Denklingen_Dienhausen,10.8315,47.8874,722.0
749664,Denzlingen,7.8649,48.0633,223.0
750024,Diedorf_Schwaben_Biburg,10.7604,48.3737,498.0
750576,Diessen_Ammersee_Riederau,11.097,47.9805,540.0
751020,Dietersburg,12.9258,48.4996,398.0
751560,Dillingen_Donau,10.4985,48.5701,420.0
752340,Dillingen_Donau_Fristingen,10.5599,48.5562,419.0
752892,Dinkelscherben,10.5915,48.3473,460.0
753336,Dischingen_Egauwasserwerk_,10.3635,48.6818,460.0
753636,Dischingen_Eglingen,10.4405,48.7134,550.0
754056,Ditzenbach_Bad,9.7064,48.5859,518.0
754536,Ditzingen_Heimerdingen,8.9632,48.8601,294.0
754956,Dobel,8.4921,48.7968,696.0
755112,Donaueschingen,8.5046,47.9422,677.0
755940,Donauworth,10.7745,48.7329,452.0
756792,Dorfen_Klaranlage_,12.1616,48.2746,430.0
757236,Dornstetten,8.4959,48.4757,680.0
757776,Dornstetten_Aach,8.4809,48.4718,600.0
758196,Durach_Bodelsberg,10.4119,47.6844,896.0
758796,Durbach_Ebersweier,7.9943,48.5017,196.0
759348,Durrheim_Bad,8.5343,48.0135,692.0
759468,Eberfing,11.1991,47.7958,611.0
759912,Ebersbach_Fils,9.5328,48.7201,300.0
760224,Ebersberg_Halbing,11.9872,48.1002,592.0
760920,Efringen_Kirchen_Kleinkems,7.5234,47.6894,235.0
761328,Egenhofen,11.1651,48.2813,503.0
761460,Eggenfelden,12.7287,48.3956,410.0
761976,Eggenthal_Grub,10.5024,47.9209,756.0
762684,Egglham,13.0473,48.5318,375.0
763128,Eging_am_See_Burgstall,13.2512,48.6846,400.0
763548,Egling_Isar_Attenham,11.559,47.932,709.0
764100,Ehingen_Donau,9.7247,48.273,496.0
764772,Ehingen_Donau_Frankenhofen,9.6028,48.3326,745.0
765252,Ehingen_Kirchen,9.6355,48.2754,594.0
765804,Ehingen_a_Ries_Schaffhauser_Hof_,10.575,48.9662,433.0
765828,Ehningen,8.9121,48.6593,487.0
765864,Eiberg,12.882,48.3416,470.0
766128,Eichendorf,12.8531,48.636,350.0
766512,Eichstatt_Landershofen,11.2349,48.8777,384.0
767688,Eichstetten,7.7378,48.0919,215.0
768240,Eimeldingen,7.5959,47.6288,264.0
768648,Eisenbach,8.2693,47.9634,976.0
769476,Eitting,11.8839,48.3583,449.0
769812,Ellgau,10.8781,48.5968,426.0
770256,Ellwangen_Rindelbach,10.1312,48.9895,460.0
771216,Elzach_Fisnacht,8.1089,48.2012,440.0
771672,Elzach_Oberprechtal,8.1435,48.2147,480.0
772068,Emmendingen_Mundingen,7.8351,48.1378,201.0
772668,Emmingen_Liptingen,8.8584,47.9317,743.0
773220,Endorf_Bad,12.2977,47.9044,525.0
773772,Engen_Hegau,8.7673,47.8516,540.0
774048,Engen_Stetten,8.7176,47.8741,738.0
774468,Eningen,9.3028,48.4734,705.0
774588,Epfendorf_Butschhof,8.6333,48.25,530.0
774660,Eppishausen_Haselbach,10.5107,48.1994,529.0
775212,Erbach_Ringingen,9.8133,48.3457,580.0
775668,Erdweg,11.2982,48.3324,477.0
776220,Eresing_Sankt_Ottilien_,11.0437,48.0941,590.0
777072,Ergolding_Pfarrkofen,12.0971,48.5993,455.0
777396,Ergoldsbach_Klaham,12.1766,48.6662,450.0
778536,Ering,13.1398,48.3008,340.0
779064,Eriskirch_Mariabrunn,9.5392,47.6358,408.0
779460,Erstetten,9.8333,48.3333,588.0
779484,Eschbach,7.6611,47.8858,234.0
780012,Eschbronn_Mariazell,8.4672,48.1868,714.0
780564,Eschenlohe,11.1879,47.601,636.0
781344,Essenbach,12.215,48.6115,390.0
781884,Esslingen_Neckar,9.3251,48.7447,310.0
782436,Ettal,11.1009,47.5647,871.0
783720,Ettal_Graswang,11.0264,47.5728,867.0
784008,Ettenheim_Ettenheimmunster,7.8768,48.2436,215.0
784128,Ettlingen_Ettlingenweier,8.3824,48.9246,118.0
784548,Eurasburg_Freienried,11.1326,48.3299,525.0
785100,Eurasburg_Oberbayern_Quarzbichl,11.4036,47.7947,610.0
785340,Fahrenzhausen,11.5636,48.363,458.0
785892,Falkenberg_Kr_Rottal_Inn,12.7241,48.4832,472.0
786588,Feilnbach_Bad,12.0186,47.7688,530.0
787188,Feldberg_Schwarzwald,8.0038,47.8749,1489.6
788136,Feldkirchen_Westerham_Lenzmuhle,11.9004,47.9411,517.0
788868,Feldkirchen_Westerham_Vagen,11.8705,47.8744,529.0
789240,Fellbach,9.2721,48.8122,280.0
789972,Finningen_Brunnenmuhle_,10.4895,48.6414,434.0
790512,Finsing_Kraftwerk_,11.7989,48.2213,498.0
790956,Fischbachau_Birkenstein,11.9644,47.7147,853.0
791556,Fischbachau_Schreiern,11.9169,47.7613,771.0
792156,Fischen,10.2696,47.4608,757.0
792588,Fischhausen_bei_Schliersee,11.8833,47.7,780.0
793452,Flintsbach_Inn_Asten,12.1168,47.7001,1101.0
794160,Fluorn_Winzeln,8.4904,48.299,660.0
794580,Forbach_Herrenwies,8.2683,48.6579,750.0
795000,Forstinning,11.9062,48.1723,508.0
795708,Frasdorf,12.2813,47.7997,605.0
796584,Frauenau,13.3109,48.9907,663.0
796920,Frauenneuharting_Lohen,12.0506,48.0524,505.0
797472,Freiamt_Keppenbach,7.9194,48.1447,275.0
798276,Freiamt_Ottoschwanden,7.9336,48.2018,481.0
798924,Freiburg,7.8344,48.0233,236.3
799776,Freiburg_im_Breisgau_Ebnet,7.9058,47.9849,319.0
800220,Freiburg_im_Breisgau_Haslach,7.8244,47.9947,255.0
800304,Freiburg_im_Breisgau_Herdern,7.8588,48.013,255.0
800916,Freiburg_im_Breisgau_Mooswald,7.8208,48.0147,244.0
801276,Freiburg_im_Breisgau_Sankt_Georgen,7.8147,47.981,253.0
801792,Freiburg_im_Breisgau_Schlierberg,7.8338,47.9735,285.0
802092,Freilassing,12.988,47.8454,411.0
802800,Fremdingen,10.4615,48.9745,465.0
803352,Freudenstadt,8.4091,48.4537,796.5
804204,Freudenstadt_Igelsberg,8.4358,48.5418,757.0
804828,Freudenstadt_Kniebis,8.3026,48.4652,863.0
805632,Freudenstadt_Kurgarten,8.4141,48.4607,736.0
805692,Freyung_Kreuzberg,13.5502,48.8393,803.0
806256,Frickenhofen,9.7833,48.9167,560.0
806448,Fridingen,8.9207,48.0202,634.0
807036,Fridolfing,12.8228,48.0077,384.0
807384,Friedrichshafen,9.4795,47.6454,394.0
807852,Fronreute_Blitzenreute,9.5833,47.8667,584.0
808224,Furstenzell,13.3531,48.5451,476.4
808548,Furstenzell_Hohenstadt_Bad,13.3184,48.4997,355.0
809016,Furtwangen,8.198,48.0613,870.0
809436,Fussen_Weissensee,10.6296,47.5774,790.0
810108,Fussing_Bad_Voglod,13.3673,48.3763,316.0
810744,Gablingen_Lutzelburg,10.7879,48.4621,515.0
811188,Gaggenau_Rotenfels_Bad,8.2917,48.8247,132.0
811740,Gaimersheim,11.3814,48.8023,384.0
812184,Gangkofen_Klaranlage_,12.5714,48.4327,434.0
812604,Garmisch_Partenkirchen,11.0623,47.4831,719.0
813612,Garmisch_Partenkirchen_Eckbauer,11.1333,47.4667,1236.0
814176,Garmisch_Partenkirchen_Kaltenbrunn,11.1751,47.4886,860.0
814908,Garmisch_Partenkirchen_Kreuzeckhaus_,11.0667,47.45,1652.0
815592,Geiselhoring,12.3908,48.8271,348.0
816132,Geiselhoring_Ponning,12.4732,48.8359,356.0
816540,Geisenfeld_Eichelberg,11.5845,48.6516,395.0
817080,Geisenhausen,12.2604,48.4798,467.0
817740,Geisingen,8.6473,47.9242,672.0
818256,Geislingen_an_der_Steige,9.8495,48.6279,443.0
818676,Gelbelsee,11.4289,48.9481,536.0
818796,Geretsried,11.4775,47.8433,608.0
819768,Gerstetten,10.0321,48.6226,653.0
820284,Gerstetten_Dettingen,10.1313,48.5995,562.0
821052,Gersthofen,10.8833,48.45,455.0
821808,Gessertshausen_Wollishausen,10.7062,48.3244,483.0
822180,Gilching,11.2781,48.1085,550.0
822588,Glottertal,7.9427,48.0474,326.0
822996,Goggingen,9.8869,48.8621,490.0
823548,Gomadingen,9.3906,48.3996,663.0
823932,Goppingen_Hohenstaufen,9.7158,48.7401,565.0
824556,Goppingen_Jebenhausen,9.6348,48.689,367.0
825108,Gorisried,10.5135,47.7033,820.0
825984,Gorwihl_Segeten,8.0227,47.6591,879.0
826752,Gottmadingen,8.7932,47.7344,438.0
827304,Grafenhausen_Hochschwarzwald,8.2477,47.7758,948.0
827856,Grafling,12.9763,48.896,445.0
828552,Grafling_Muhlen,12.9773,48.9487,586.0
829248,Grafrath_Unteralting,11.1651,48.118,555.0
829692,Grainau,11.0181,47.4709,760.0
830580,Grainau_Eibsee,10.994,47.4561,1008.0
831588,Grainet_Rehberg,13.6291,48.7893,628.0
831936,Grassau,12.486,47.7941,540.0
832752,Griesbach_Bad_im_Rottal_Kemading,13.2237,48.488,390.0
833232,Grobenzell,11.3655,48.1958,508.0
833676,Gronenbach_Thal,10.2552,47.8794,676.0
834276,Grossmehring_Theissing,11.5728,48.8126,408.0
834732,Gruibingen,9.6467,48.5912,564.0
835080,Gschwend_Kr_Ostalb,9.7364,48.9354,492.0
835764,Gundelfingen_Donau_Petersworth,10.3696,48.5307,432.0
836628,Gunzburg,10.2607,48.4878,444.0
837396,Gutach_im_Breisgau_Bleibach,8.008,48.1222,302.0
837816,Haag_Kreis_Muhldorf,12.1705,48.153,528.0
838776,Hagelstadt,12.217,48.896,364.0
839316,Haidmuhle_Bischofsreut,13.7271,48.8479,1015.0
840012,Haigerloch_Weildorf,8.7666,48.3705,524.0
840564,Haimhausen_Ottershausen,11.5318,48.3028,464.0
840960,Haiming,12.8823,48.2116,363.0
841392,Haiterbach,8.6526,48.5276,528.0
841788,Halblech_Trauchgau,10.8073,47.6463,780.0
842820,Hallbergmoos_Goldach,11.7394,48.3124,462.0
843264,Harburg,10.7062,48.7918,501.9
843816,Harthausen_Kreis_Zollernalb,9.1667,48.2,737.0
844080,Hartheim_am_Rhein,7.6182,47.936,200.0
844632,Haslach_im_Kinzigtal,8.0842,48.2766,220.0
845196,Hausham_Grub,11.8083,47.7705,770.0
845916,Hausstein,13.067,48.8629,648.0
846180,Hayingen,9.4745,48.2738,665.0
846600,Hechingen,8.9801,48.3751,522.0
847560,Heidenheim_Brenz,10.1307,48.6765,498.4
848568,Heidenheim_Hohentrudingen,10.7015,48.999,587.0
849120,Heiligenberg,9.3133,47.8208,740.0
849540,Heimenkirch,9.8908,47.631,639.0
849972,Heitersheim,7.6523,47.876,231.0
850380,Heldenstein_Weidenbach,12.3395,48.253,431.0
850920,Hengersberg,13.0545,48.7734,327.0
851364,Hengersberg_Unterfrohnstetten,13.0465,48.814,368.0
851904,Herbolzheim_Wagenstadt,7.7952,48.2052,197.0
852036,Herdwangen_Schonach,9.2239,47.8835,608.0
852516,Herrenberg,8.8541,48.5915,430.0
853008,Hettenshausen,11.5028,48.5112,435.0
853512,Heubach_Ostalb,9.9408,48.7964,450.0
854244,Hildrizhausen,8.9662,48.624,483.0
854640,Hilgertshausen_Tandern,11.3414,48.4312,503.0
855084,Hindelang_Hinterstein,10.3851,47.4862,834.0
856092,Hindelang_Oberdorf_Bad,10.3888,47.4994,850.0
856896,Hindelang_Oberes_Ostrachtal_,10.4391,47.455,930.0
857304,Hindelang_Oberjoch,10.4074,47.5144,1140.0
857640,Hindelang_Unterjoch_LfW_,10.4274,47.5561,1015.0
858216,Hintersee_DE_DWD,12.85,47.6,804.0
858684,Hitzhofen_Hofstetten,11.3333,48.8833,460.0
859092,Hochdorf_Unteressendorf,9.7833,48.0167,567.0
859488,Hohenbrunn,11.6817,48.0513,565.0
859932,Hohenfels_Kr_Konstanz_Kalkofen,9.1098,47.8744,635.0
860364,Hohenkammer,11.5244,48.4271,451.0
861192,Hohenpeissenberg,11.0108,47.8009,977.0
862620,Hohenstein_Bernloch,9.3356,48.3551,740.0
863388,Hohenthann,12.0888,48.6573,470.0
863928,Hollenbach_Bayern_Schonbach,11.052,48.4798,457.0
864480,Holzkirchen,11.6962,47.8823,685.0
864996,Holzkirchen_Oberbayern_Leithen,11.65,47.8333,755.0
865404,Horb,8.6829,48.4426,389.0
865656,Horb_Betra,8.6595,48.4095,540.0
866412,Horben,7.8591,47.9366,600.0
866868,Horgenzell_Happenweiler,9.45,47.7667,544.0
867276,Hornisgrinde,8.2034,48.6136,1119.0
867972,Hufingen_Furstenberg,8.5531,47.8904,797.0
868392,Huisheim,10.6948,48.8134,490.0
868716,Hunderdorf_Thananger,12.7151,48.9501,346.0
869160,Huttisheim,9.9396,48.2772,513.0
869580,Ichenhausen_Autenried,10.2527,48.3623,497.0
870024,Icking,11.4,47.95,565.0
870276,Ihringen,7.6322,48.0419,193.0
870696,Illertissen,10.1091,48.2258,512.0
871140,Immenstaad,9.3606,47.6641,404.0
871416,Immenstadt,10.223,47.5566,731.0
872796,Immenstadt_Reute,10.202,47.6078,960.0
873504,Immenstadt_Warterhaus_,10.206,47.546,935.0
874212,Ingenried_Oberbayern_Krottenhill,10.7645,47.8027,890.0
874812,Ingolstadt_Flussmeisterstelle_,11.4539,48.7662,360.0
875712,Inzell,12.7532,47.7614,690.0
876612,Irschenberg_Kasthub,11.8678,47.8177,715.0
877608,Isen_Westach,12.0382,48.2022,550.0
878148,Isny,10.0416,47.6894,712.0
878232,Isny_Bolsternang,10.1091,47.6724,769.0
878664,Jachenau,11.4333,47.6,765.0
879216,Jachenau_Niedernach,11.3936,47.5841,803.0
879900,Jedesheim,10.1167,48.2,518.0
880104,Jettenbach,12.3798,48.178,403.0
880524,Kaisersbach_Cronhutte,9.6872,48.9171,488.7
881076,Kaisheim_Neuhof,10.7876,48.7701,516.0
881820,Kaltenbronn,8.4333,48.7,858.0
882180,Kandel_Schwarzwald,8.0183,48.0638,1172.0
882516,Kandern_Sitzenkirch,7.6709,47.7358,416.0
882984,Karlshuld,11.2961,48.6765,374.0
883584,Karlsruhe_Hohenwettersbach,8.4815,48.9687,225.0
884004,Karlsruhe_Wolfartsweier,8.4471,48.9734,125.0
884484,Kaufbeuren,10.6007,47.8652,716.0
885144,Kaufering,10.8609,48.0916,585.0
885756,Kehl_Odelshofen,7.88,48.5576,141.0
886308,Kelheim_Kanalschleuse_,11.85,48.9244,350.0
886752,Kelheim_Thaldorf,11.8903,48.8777,383.0
887292,Keltern_Ellmendingen,8.5648,48.9101,178.0
887712,Kempten,10.3348,47.7233,705.2
888672,Kiefersfelden_Gach,12.1666,47.6187,518.0
889620,Kipfenberg,11.4003,48.9529,395.0
890064,Kirchberg_Niederbayern_Zell,13.1442,48.9023,683.0
890352,Kirchdorf_im_Wald,13.2695,48.9107,693.0
891636,Kirchheim_Teck,9.445,48.6398,331.0
892320,Kirchweidach,12.6429,48.0866,505.0
892764,Kisslegg,9.9096,47.7746,698.0
893304,Klettgau_Griessen,8.4108,47.6238,390.0
893724,Klippeneck,8.7549,48.1054,973.4
894600,Kochel,11.36,47.6627,600.0
895488,Kochel_Einsiedl_Kraftwerk_,11.3006,47.5699,805.0
896064,Kochel_Urfeld,11.3459,47.6177,802.0
896580,Kochel_Walchenseekraftwerk_,11.3368,47.6308,610.0
897348,Kohlgrub_Bad_A_,11.0473,47.6777,850.0
897948,Kohlgrub_Bad_Rosshof_,11.0804,47.6652,740.0
898356,Konigsbach_Stein,8.639,48.9654,230.0
898908,Konigsmoos_Ludwigsmoos,11.1843,48.6371,382.0
899352,Konigsmoos_Untermaxfeld,11.2173,48.6707,378.0
899652,Konstanz,9.1901,47.6774,442.5
900288,Kosching,11.4872,48.8302,416.0
900984,Kraftisried,10.4605,47.7674,831.0
901860,Kraiburg_am_Inn,12.4341,48.1833,423.0
902244,Krailling,11.405,48.0949,553.0
902796,Krauchenwies,9.2456,48.0135,596.0
903480,Kressbronn,9.6,47.6,414.0
903492,Kreuth_A_,11.75,47.6333,795.0
904632,Kreuth_Glashutte,11.6462,47.6105,897.0
905400,Kronburg,10.1514,47.9084,670.0
906168,Kroning_Leisteneck,12.3737,48.5501,488.0
906708,Krozingen_Bad_Hausen,7.6578,47.9585,202.0
906720,Krumbach_Edenhausen,10.4163,48.251,520.0
907392,Krun,11.2808,47.5037,873.0
908172,Kumhausen,12.1513,48.5126,436.0
908616,Lahr,7.828,48.3647,155.0
909408,Lalling,13.1065,48.8359,353.0
909852,Landau_Isar,12.6923,48.6765,338.0
910692,Landsberg_Lech,10.8709,48.0349,602.0
910908,Landshut,12.1132,48.5357,393.0
911748,Landshut_Schonbrunn,12.1966,48.5579,385.0
912144,Langenaltheim_Buttelbronn,10.8976,48.8959,525.0
912636,Langenargen_Oberdorf,9.5772,47.6194,416.0
913188,Langenbach,11.8455,48.4348,431.0
913728,Langenenslingen_Ittenhausen,9.3327,48.1994,777.0
914280,Langenneufnach_Unterrothan,10.6237,48.271,577.0
914832,Langerringen_Schwabmuhlhausen,10.7731,48.1091,575.0
915228,Langquaid,12.0591,48.8268,392.0
915780,Lauben_Unterallgau_Frickenhausen,10.3157,48.0774,620.0
916548,Laufen_Obb_Lebenau_Haftanstalt_,12.8978,47.9522,430.0
917400,Lechbruck,10.7981,47.6927,730.0
918096,Legau,10.1288,47.8544,667.0
918540,Leiblfing,12.5121,48.7654,365.0
918900,Leinau,10.6124,47.9116,663.0
919092,Lenggries,11.5826,47.68,698.0
920100,Lenggries_Fall,11.5336,47.5685,773.0
921252,Lenggries_Rissbachwehr_,11.4428,47.5194,850.0
921852,Lenggries_Vorderriss,11.4353,47.5572,803.0
922452,Lenningen_Schopfloch,9.5275,48.5396,758.0
923184,Lenzkirch_Ruhbuhl,8.2308,47.8597,852.0
923328,Leonberg_Hofingen,9.0244,48.8155,370.0
923880,Leutenbach_Weiler_zum_Stein,9.3658,48.9062,257.0
924300,Leutkirch,10.0213,47.8244,655.0
925008,Liebenzell_Bad_LUBW_,8.7287,48.7726,352.0
925632,Liliental,7.677,48.0674,284.0
926052,Lindau_Bodensee_,9.6939,47.5594,405.0
926604,Lindenberg_Allgau,9.8878,47.598,760.0
926952,Locherberg,8.1667,48.4333,328.0
926964,Loffingen_Dittishausen,8.368,47.914,775.0
927696,Loiching,12.4143,48.6106,416.0
928332,Lonsee_Ettlenschiess,9.924,48.566,663.0
929112,Lorch_Kreis_Ostalb_Waldhausen,9.6402,48.7821,296.0
929664,Lossburg,8.4523,48.4142,662.0
930216,Lottstetten_Nack,8.5804,47.606,413.0
930312,Maierhofen,10.044,47.6437,745.0
931020,Mainburg,11.7772,48.6493,431.0
931476,Maisach_Gernlinden,11.2965,48.2166,509.0
931860,Maisach_Rottbach,11.2437,48.2502,512.0
932184,Mallersdorf_Pfaffenberg_Niederbayern,12.2177,48.7726,418.0
932976,Malsburg_Marzell_Friedrichsheim,7.7348,47.7819,852.0
933588,Malsch_Volkersbach,8.3963,48.8659,385.0
934008,Mamming_Schneiderberg,12.6232,48.6187,447.0
934704,Mariaposching,12.8167,48.8333,315.0
935052,Markdorf,9.3811,47.7313,515.0
935580,Markgroningen,9.0737,48.9048,281.0
936336,Marklkofen_Betriebsstelle_Vilstalsee_,12.5719,48.5587,400.0
936720,Markt_Wald,10.5805,48.1352,633.0
937164,Marktoberdorf,10.6166,47.781,730.0
938508,Marktoberdorf_Sulzschneid,10.6433,47.7196,790.0
939084,Marktschellenberg,13.0372,47.7046,501.0
940056,Marktschellenberg_Ettenberg,13.0237,47.6794,847.0
940656,Marxzell_Schielberg,8.4459,48.8478,398.0
941412,Mauth,13.588,48.8873,811.0
942012,Mauth_Finsterau,13.5747,48.9359,1011.0
942948,Meersburg,9.2753,47.6985,460.0
943380,Megesheim,10.6729,48.9293,438.0
943824,Mehring_Kr_Altotting_Niederholz,12.8098,48.1869,411.0
944760,Memmingen,10.1384,47.982,615.0
945468,Mengen_Ennetach,9.3185,48.0557,567.0
946020,Mengkofen_Hofdorf,12.4119,48.7085,403.0
946560,Mengkofen_Puchhausen,12.5,48.75,370.0
947004,Mering_Bauhof_,10.9768,48.2708,510.0
947856,Merklingen,9.7645,48.5121,685.0
948708,Mertingen,10.7957,48.6614,407.0
949260,Messkirch_Rohrdorf,9.0996,48.0183,644.0
949680,Messstetten_Appental,8.9433,48.1694,899.5
949704,Messstetten_Tieringen,8.8832,48.2019,852.0
950124,Metten,12.9189,48.8548,313.0
951108,Metzingen,9.2733,48.5376,355.0
951840,Mindelheim,10.4835,48.0649,590.0
952692,Mindelstetten,11.6205,48.8476,399.0
953232,Mittbach,12.0307,48.1644,621.0
953520,Mittelstetten,10.7667,48.2,541.0
953724,Mittenwald_Buckelwiesen,11.2653,47.4779,981.0
954672,Monheim,10.8667,48.85,495.0
954780,Monheim_Itzing,10.8262,48.8184,475.0
955128,Moorenweis_Grunertshofen,11.0881,48.1874,550.0
955680,Moosburg_Isar_Pfrombach,12.0043,48.4401,445.0
956580,Mottingen,10.5854,48.8107,416.0
957516,Muhlacker,8.8734,48.9721,244.0
957744,Muhlacker_Grossglattbach,8.8998,48.9121,312.0
957876,Muhlacker_Schulstr_,8.8357,48.9443,246.0
958488,Muhldorf,12.5024,48.2791,405.6
959280,Mullheim_DE_DWD,7.6387,47.8064,273.0
960156,Munchen_Bogenhausen,11.6,48.1441,521.0
960264,Munchen_Flughafen,11.8133,48.3477,445.5
960660,Munchen_Harlaching,11.5667,48.0833,556.0
960672,Munchen_Kirchtrudering,11.6715,48.1283,526.0
961632,Munchen_Nymphenburg,11.5011,48.166,515.0
962880,Munchen_Obermenzing,11.4486,48.1577,522.0
963324,Munchen_Perlach,11.6486,48.0919,542.0
963372,Munchen_Riem,11.7094,48.1369,529.0
964068,Munchen_Sankt_Bonifaz_,11.5636,48.1447,516.0
964440,Munchen_Stadt,11.5429,48.1631,515.2
965232,Munsingen_Apfelstetten,9.4837,48.3851,750.0
966180,Munsterhausen,10.4566,48.308,500.0
966624,Munstertal,7.8086,47.869,456.0
967176,Murnau,11.2238,47.6689,624.0
968724,Murrhardt,9.5708,48.9729,344.0
969432,Nagold,8.7184,48.5667,380.0
970152,Nandlstadt,11.8398,48.5235,475.0
970692,Nassenfels,11.2181,48.8016,401.0
971232,Nattheim_Fleinheim,10.2997,48.7071,530.0
971676,Neckartenzlingen,9.2322,48.5926,289.0
972060,Nehren,9.0704,48.4354,421.0
972480,Neidlingen,9.5667,48.5765,462.0
972960,Neresheim_Stetten,10.2794,48.7712,552.0
973476,Nersingen_Oberfahlheim,10.1473,48.4294,472.0
974028,Nesseltal_bei_Bayrischzell,12.0333,47.6333,899.0
974316,Nesselwang,10.5077,47.6347,880.0
975384,Neu_Ulm,9.9902,48.3796,471.0
975720,Neu_Ulm_Hausen,10.0624,48.3455,514.0
976428,Neubulach_Oberhaugstett,8.6801,48.6516,570.0
976788,Neuburg_Donau,11.204,48.7321,380.0
977232,Neuburg_Kammel_Langenhaslach,10.3773,48.3115,486.0
977640,Neuenburg,7.5617,47.8088,213.0
978060,Neufahrn,11.6703,48.3083,464.0
978612,Neuffen,9.3703,48.5648,394.0
979236,Neuhausen_ob_Eck,8.9101,47.976,793.0
979524,Neuhausen_ob_Eck_Unterschwandorf,8.9932,47.9519,663.0
979908,Neumarkt_Sankt_Veit_Klaranlage_,12.5215,48.3657,440.0
980352,Neureichenau_Duschlberg,13.7286,48.7901,880.0
981348,Neureichenau_Klafferstrass,13.8066,48.7307,668.0
982044,Neuried_Altenheim,7.8133,48.4616,148.0
982596,Neusass,10.8206,48.3812,525.0
983040,Neuschonau_Altschonau,13.4614,48.9084,730.0
983640,Neustadt_Donau_Hienheim,11.7697,48.8654,360.0
983916,Neuweiler_Kreis_Calw,8.5973,48.6579,641.0
984348,Niederstotzingen,10.243,48.5334,451.0
985176,Nordrach_Barhag,8.1155,48.4232,384.0
985452,Nordrach_Baumlisberg,8.0667,48.3833,285.0
985560,Nufringen,8.8962,48.6207,457.0
986004,Nurtingen,9.3261,48.6321,280.0
986508,Oberau,11.127,47.5588,674.0
987324,Oberbergkirchen_Schorging,12.3696,48.303,458.0
987864,Obere_Firstalm_Schlierseer_Berge,11.8544,47.6699,1369.0
988572,Oberhaching_Laufzorn,11.5524,48.013,604.0
988716,Oberharmersbach,8.1426,48.3862,372.0
989232,Oberhausen_Donau_Sinning,11.1068,48.6884,410.0
989676,Oberkirch,8.0833,48.5167,190.0
990012,Oberkochen,10.1199,48.7871,500.0
990312,Oberndorf_Neckar,8.5754,48.2851,516.0
990948,Oberndorf_Neckar_Aistaig,8.5735,48.3147,480.0
991464,Obernzell,13.6491,48.5559,360.0
992328,Oberpframmern,11.8061,48.0183,606.0
992976,Oberreichenbach,8.6561,48.7366,646.0
993528,Oberreute,9.9407,47.5538,903.0
994404,Oberried_Baden,7.9461,47.9327,467.0
994956,Oberried_Hofsgrund,7.8988,47.9019,1023.0
995364,Oberried_Sankt_Wilhelm,7.9535,47.8869,920.0
995760,Oberried_Sankt_Wilhelm_Forsthaus_,7.948,47.8977,740.0
995796,Oberried_Zastler,8.0,47.9167,625.0
